{
"type": "FeatureCollection",
"name": "Tubestations",
"crs": { "type": "name", "properties": { "name": "urn:ogc:def:crs:OGC:1.3:CRS84" } },
"features": [
{ "type": "Feature", "properties": { "id": "940GZZLUCGT", "name_x": "Canning Town", "lines": [ { "name": "Jubilee", "network": "Tube" }, { "name": "DLR", "network": "DLR" } ], "Lat": 51.51404, "Long": 0.008171, "Year": 1999.0, "zone": "2\/3" }, "geometry": { "type": "Point", "coordinates": [ 0.008170711261585, 51.514039696762609 ] } },
{ "type": "Feature", "properties": { "id": "940GZZLUACT", "name_x": "Acton Town", "lines": [ { "name": "District", "network": "Tube" }, { "name": "Piccadilly", "network": "Tube" } ], "Lat": 51.502644, "Long": -0.279917, "Year": 1879.0, "zone": "3" }, "geometry": { "type": "Point", "coordinates": [ -0.279916688851358, 51.502643596762596 ] } },
{ "type": "Feature", "properties": { "id": "940GZZLUACY", "name_x": "Archway", "lines": [ { "name": "Northern", "network": "Tube" } ], "Lat": 51.565371, "Long": -0.134745, "Year": 1907.0, "zone": "2\/3" }, "geometry": { "type": "Point", "coordinates": [ -0.13474528876759, 51.565370996797867 ] } },
{ "type": "Feature", "properties": { "id": "940GZZLUADE", "name_x": "Aldgate East", "lines": [ { "name": "District", "network": "Tube" }, { "name": "Hammersmith & City", "network": "Tube" } ], "Lat": 51.515147, "Long": -0.071877, "Year": 1884.0, "zone": "1" }, "geometry": { "type": "Point", "coordinates": [ -0.071876588767452, 51.515147196765611 ] } },
{ "type": "Feature", "properties": { "id": "940GZZLUAGL", "name_x": "Angel", "lines": [ { "name": "Northern", "network": "Tube" } ], "Lat": 51.531821, "Long": -0.10613, "Year": 1901.0, "zone": "1" }, "geometry": { "type": "Point", "coordinates": [ -0.106129988772466, 51.531821496776558 ] } },
{ "type": "Feature", "properties": { "id": "940GZZLUALD", "name_x": "Aldgate", "lines": [ { "name": "Circle", "network": "Tube" }, { "name": "Metropolitan", "network": "Tube" } ], "Lat": 51.514096, "Long": -0.075716, "Year": 1876.0, "zone": "1" }, "geometry": { "type": "Point", "coordinates": [ -0.075715588769413, 51.514096396765012 ] } },
{ "type": "Feature", "properties": { "id": "940GZZLUALP", "name_x": "Alperton", "lines": [ { "name": "Piccadilly", "network": "Tube" } ], "Lat": 51.540555, "Long": -0.299455, "Year": 1903.0, "zone": "4" }, "geometry": { "type": "Point", "coordinates": [ -0.299454788841331, 51.540554796786125 ] } },
{ "type": "Feature", "properties": { "id": "940GZZLUAMS", "name_x": "Amersham", "lines": [ { "name": "Metropolitan", "network": "Tube" } ], "Lat": 51.674207, "Long": -0.608469, "Year": 1892.0, "zone": "9" }, "geometry": { "type": "Point", "coordinates": [ -0.608468688901837, 51.674206696875217 ] } },
{ "type": "Feature", "properties": { "id": "940GZZLUASG", "name_x": "Arnos Grove", "lines": [ { "name": "Piccadilly", "network": "Tube" } ], "Lat": 51.616476, "Long": -0.133269, "Year": 1932.0, "zone": "4" }, "geometry": { "type": "Point", "coordinates": [ -0.133268788743408, 51.616475596829105 ] } },
{ "type": "Feature", "properties": { "id": "940GZZLUASL", "name_x": "Arsenal", "lines": [ { "name": "Piccadilly", "network": "Tube" } ], "Lat": 51.557824, "Long": -0.108099, "Year": 1906.0, "zone": "2" }, "geometry": { "type": "Point", "coordinates": [ -0.108099325493356, 51.557824186691619 ] } },
{ "type": "Feature", "properties": { "id": "940GZZLUBBB", "name_x": "Bromley-by-Bow", "lines": [ { "name": "District", "network": "Tube" }, { "name": "Hammersmith & City", "network": "Tube" } ], "Lat": 51.524737, "Long": -0.011585, "Year": 1902.0, "zone": "2\/3" }, "geometry": { "type": "Point", "coordinates": [ -0.01158508874073, 51.524736596769799 ] } },
{ "type": "Feature", "properties": { "id": "940GZZLUBBN", "name_x": "Barbican", "lines": [ { "name": "Hammersmith & City", "network": "Tube" }, { "name": "Circle", "network": "Tube" }, { "name": "Metropolitan", "network": "Tube" } ], "Lat": 51.520215, "Long": -0.097792, "Year": 1865.0, "zone": "1" }, "geometry": { "type": "Point", "coordinates": [ -0.097792388774678, 51.520214996769255 ] } },
{ "type": "Feature", "properties": { "id": "940GZZLUBDS", "name_x": "Bounds Green", "lines": [ { "name": "Piccadilly", "network": "Tube" } ], "Lat": 51.607066, "Long": -0.124134, "Year": 1932.0, "zone": "3\/4" }, "geometry": { "type": "Point", "coordinates": [ -0.124134488744289, 51.607065796823065 ] } },
{ "type": "Feature", "properties": { "id": "940GZZLUBEC", "name_x": "Becontree", "lines": [ { "name": "District", "network": "Tube" } ], "Lat": 51.540323, "Long": 0.127269, "Year": 1932.0, "zone": "5" }, "geometry": { "type": "Point", "coordinates": [ 0.127268911317287, 51.540323496774988 ] } },
{ "type": "Feature", "properties": { "id": "940GZZLUBKE", "name_x": "Barkingside", "lines": [ { "name": "Central", "network": "Tube" } ], "Lat": 51.58565, "Long": 0.08858, "Year": 1948.0, "zone": "4" }, "geometry": { "type": "Point", "coordinates": [ 0.088580011324382, 51.585649696803841 ] } },
{ "type": "Feature", "properties": { "id": "940GZZLUBKF", "name_x": "Blackfriars", "lines": [ { "name": "District", "network": "Tube" }, { "name": "Circle", "network": "Tube" }, { "name": "National Rail", "network": "Rail" } ], "Lat": 51.511774, "Long": -0.10314, "Year": 1870.0, "zone": "1" }, "geometry": { "type": "Point", "coordinates": [ -0.103139988780583, 51.511774096764157 ] } },
{ "type": "Feature", "properties": { "id": "940GZZLUBKG", "name_x": "Barking", "lines": [ { "name": "District", "network": "Tube" }, { "name": "Hammersmith & City", "network": "Tube" }, { "name": "London Overground", "network": "Rail", "opened": 2007 }, { "name": "National Rail", "network": "Rail" } ], "Lat": 51.539515, "Long": 0.081201, "Year": 1902.0, "zone": "4" }, "geometry": { "type": "Point", "coordinates": [ 0.081200611300233, 51.539514896775927 ] } },
{ "type": "Feature", "properties": { "id": "940GZZLUBKH", "name_x": "Buckhurst Hill", "lines": [ { "name": "Central", "network": "Tube" } ], "Lat": 51.625946, "Long": 0.046797, "Year": 1948.0, "zone": "5" }, "geometry": { "type": "Point", "coordinates": [ 0.046796811328136, 51.625945796829853 ] } },
{ "type": "Feature", "properties": { "id": "940GZZLUBLG", "name_x": "Bethnal Green", "lines": [ { "name": "Central", "network": "Tube" } ], "Lat": 51.527473, "Long": -0.055488, "Year": 1946.0, "zone": "2" }, "geometry": { "type": "Point", "coordinates": [ -0.055488488755657, 51.527473196772576 ] } },
{ "type": "Feature", "properties": { "id": "940GZZLUBLM", "name_x": "Balham", "lines": [ { "name": "Northern", "network": "Tube" } ], "Lat": 51.443164, "Long": -0.152988, "Year": 1926.0, "zone": "3" }, "geometry": { "type": "Point", "coordinates": [ -0.152987888831149, 51.443164396723603 ] } },
{ "type": "Feature", "properties": { "id": "940GZZLUBLR", "name_x": "Blackhorse Road", "lines": [ { "name": "London Overground", "network": "Rail", "opened": 2007 }, { "name": "Victoria", "network": "Tube" } ], "Lat": 51.586636, "Long": -0.041339, "Year": 1968.0, "zone": "3" }, "geometry": { "type": "Point", "coordinates": [ -0.041339070661138, 51.586635642661406 ] } },
{ "type": "Feature", "properties": { "id": "940GZZLUBMY", "name_x": "Bermondsey", "lines": [ { "name": "Jubilee", "network": "Tube" } ], "Lat": 51.49773, "Long": -0.063738, "Year": 1999.0, "zone": "2" }, "geometry": { "type": "Point", "coordinates": [ -0.063738188772618, 51.497729696754789 ] } },
{ "type": "Feature", "properties": { "id": "940GZZLUBND", "name_x": "Bond Street", "lines": [ { "name": "Central", "network": "Tube" }, { "name": "Jubilee", "network": "Tube" }, { "name": "Crossrail", "network": "Rail", "opened": 2018 } ], "Lat": 51.514325, "Long": -0.148986, "Year": 1900.0, "zone": "1" }, "geometry": { "type": "Point", "coordinates": [ -0.148986088796505, 51.514325396766878 ] } },
{ "type": "Feature", "properties": { "id": "940GZZLUBOR", "name_x": "Borough", "lines": [ { "name": "Northern", "network": "Tube" } ], "Lat": 51.501094, "Long": -0.09341, "Year": 1890.0, "zone": "1" }, "geometry": { "type": "Point", "coordinates": [ -0.093409988782014, 51.501093596757471 ] } },
{ "type": "Feature", "properties": { "id": "940GZZLUBOS", "name_x": "Boston Manor", "lines": [ { "name": "Piccadilly", "network": "Tube" } ], "Lat": 51.495748, "Long": -0.324733, "Year": 1883.0, "zone": "4" }, "geometry": { "type": "Point", "coordinates": [ -0.324733388871607, 51.495748296759075 ] } },
{ "type": "Feature", "properties": { "id": "940GZZLUBSC", "name_x": "Barons Court", "lines": [ { "name": "District", "network": "Tube" }, { "name": "Piccadilly", "network": "Tube" } ], "Lat": 51.49026, "Long": -0.213749, "Year": 1905.0, "zone": "2" }, "geometry": { "type": "Point", "coordinates": [ -0.213748788832049, 51.490259896753685 ] } },
{ "type": "Feature", "properties": { "id": "940GZZLUBST", "name_x": "Baker Street", "lines": [ { "name": "Bakerloo", "network": "Tube" }, { "name": "Hammersmith & City", "network": "Tube" }, { "name": "Circle", "network": "Tube" }, { "name": "Jubilee", "network": "Tube" }, { "name": "Metropolitan", "network": "Tube" } ], "Lat": 51.522501, "Long": -0.155512, "Year": 1863.0, "zone": "1" }, "geometry": { "type": "Point", "coordinates": [ -0.155511988795183, 51.522500796772079 ] } },
{ "type": "Feature", "properties": { "id": "940GZZLUBTK", "name_x": "Burnt Oak", "lines": [ { "name": "Northern", "network": "Tube" } ], "Lat": 51.602845, "Long": -0.263952, "Year": 1924.0, "zone": "4" }, "geometry": { "type": "Point", "coordinates": [ -0.263952188799124, 51.602844896823967 ] } },
{ "type": "Feature", "properties": { "id": "940GZZLUBTX", "name_x": "Brent Cross", "lines": [ { "name": "Northern", "network": "Tube" } ], "Lat": 51.5767, "Long": -0.213553, "Year": 1923.0, "zone": "3" }, "geometry": { "type": "Point", "coordinates": [ -0.21355328879207, 51.576700196806598 ] } },
{ "type": "Feature", "properties": { "id": "940GZZLUBWR", "name_x": "Bow Road", "lines": [ { "name": "District", "network": "Tube" }, { "name": "Hammersmith & City", "network": "Tube" } ], "Lat": 51.526873, "Long": -0.024842, "Year": 1902.0, "zone": "2" }, "geometry": { "type": "Point", "coordinates": [ -0.02484158874455, 51.526872596771398 ] } },
{ "type": "Feature", "properties": { "id": "940GZZLUBWT", "name_x": "Bayswater", "lines": [ { "name": "District", "network": "Tube" }, { "name": "Circle", "network": "Tube" } ], "Lat": 51.512333, "Long": -0.187837, "Year": 1868.0, "zone": "1" }, "geometry": { "type": "Point", "coordinates": [ -0.187836888812001, 51.512332996766531 ] } },
{ "type": "Feature", "properties": { "id": "940GZZLUBXN", "name_x": "Brixton", "lines": [ { "name": "Victoria", "network": "Tube" } ], "Lat": 51.462606, "Long": -0.114872, "Year": 1971.0, "zone": "2" }, "geometry": { "type": "Point", "coordinates": [ -0.114872007132249, 51.462606256088122 ] } },
{ "type": "Feature", "properties": { "id": "940GZZLUBZP", "name_x": "Belsize Park", "lines": [ { "name": "Northern", "network": "Tube" } ], "Lat": 51.550275, "Long": -0.164704, "Year": 1907.0, "zone": "2" }, "geometry": { "type": "Point", "coordinates": [ -0.164704188785834, 51.550275096789278 ] } },
{ "type": "Feature", "properties": { "id": "940GZZLUCAL", "name_x": "Chalfont & Latimer", "lines": [ { "name": "Metropolitan", "network": "Tube" } ], "Lat": 51.668042, "Long": -0.56082, "Year": 1889.0, "zone": "8" }, "geometry": { "type": "Point", "coordinates": [ -0.560820488885611, 51.668041896870477 ] } },
{ "type": "Feature", "properties": { "id": "940GZZLUCAR", "name_x": "Caledonian Road", "lines": [ { "name": "Piccadilly", "network": "Tube" } ], "Lat": 51.548373, "Long": -0.118367, "Year": 1906.0, "zone": "2" }, "geometry": { "type": "Point", "coordinates": [ -0.118367188769355, 51.548373496787008 ] } },
{ "type": "Feature", "properties": { "id": "940GZZLUCFM", "name_x": "Chalk Farm", "lines": [ { "name": "Northern", "network": "Tube" } ], "Lat": 51.544202, "Long": -0.15347, "Year": 1907.0, "zone": "2" }, "geometry": { "type": "Point", "coordinates": [ -0.153469988784423, 51.544201796785387 ] } },
{ "type": "Feature", "properties": { "id": "940GZZLUCGN", "name_x": "Covent Garden", "lines": [ { "name": "Piccadilly", "network": "Tube" } ], "Lat": 51.51306, "Long": -0.124196, "Year": 1907.0, "zone": "1" }, "geometry": { "type": "Point", "coordinates": [ -0.124196088787926, 51.513059996765605 ] } },
{ "type": "Feature", "properties": { "id": "940GZZLUCHL", "name_x": "Chancery Lane", "lines": [ { "name": "Central", "network": "Tube" } ], "Lat": 51.518112, "Long": -0.112121, "Year": 1900.0, "zone": "1" }, "geometry": { "type": "Point", "coordinates": [ -0.11212138878102, 51.518111596768449 ] } },
{ "type": "Feature", "properties": { "id": "940GZZLUCHX", "name_x": "Charing Cross", "lines": [ { "name": "Bakerloo", "network": "Tube" }, { "name": "Northern", "network": "Tube" } ], "Lat": 51.507335, "Long": -0.127362, "Year": 1906.0, "zone": "1" }, "geometry": { "type": "Point", "coordinates": [ -0.127361788791745, 51.50733539676213 ] } },
{ "type": "Feature", "properties": { "id": "940GZZLUCKS", "name_x": "Cockfosters", "lines": [ { "name": "Piccadilly", "network": "Tube" } ], "Lat": 51.651605, "Long": -0.14935, "Year": 1933.0, "zone": "5" }, "geometry": { "type": "Point", "coordinates": [ -0.149350288733217, 51.651605096851313 ] } },
{ "type": "Feature", "properties": { "id": "940GZZLUCND", "name_x": "Colindale", "lines": [ { "name": "Northern", "network": "Tube" } ], "Lat": 51.595349, "Long": -0.249783, "Year": 1924.0, "zone": "4" }, "geometry": { "type": "Point", "coordinates": [ -0.249783288797232, 51.595349096818893 ] } },
{ "type": "Feature", "properties": { "id": "940GZZLUCPC", "name_x": "Clapham Common", "lines": [ { "name": "Northern", "network": "Tube" } ], "Lat": 51.461986, "Long": -0.137588, "Year": 1900.0, "zone": "2" }, "geometry": { "type": "Point", "coordinates": [ -0.137588488816618, 51.461986096734734 ] } },
{ "type": "Feature", "properties": { "id": "940GZZLUCPK", "name_x": "Canons Park", "lines": [ { "name": "Jubilee", "network": "Tube" } ], "Lat": 51.607756, "Long": -0.294744, "Year": 1932.0, "zone": "5" }, "geometry": { "type": "Point", "coordinates": [ -0.294744288808715, 51.607756496827449 ] } },
{ "type": "Feature", "properties": { "id": "940GZZLUCPN", "name_x": "Clapham North", "lines": [ { "name": "Northern", "network": "Tube" } ], "Lat": 51.465118, "Long": -0.129898, "Year": 1900.0, "zone": "2" }, "geometry": { "type": "Point", "coordinates": [ -0.129898388812251, 51.465117796736479 ] } },
{ "type": "Feature", "properties": { "id": "940GZZLUCPS", "name_x": "Clapham South", "lines": [ { "name": "Northern", "network": "Tube" } ], "Lat": 51.452763, "Long": -0.147584, "Year": 1926.0, "zone": "2\/3" }, "geometry": { "type": "Point", "coordinates": [ -0.147584288824589, 51.452762896729439 ] } },
{ "type": "Feature", "properties": { "id": "940GZZLUCSD", "name_x": "Colliers Wood", "lines": [ { "name": "Northern", "network": "Tube" } ], "Lat": 51.418115, "Long": -0.17809, "Year": 1926.0, "zone": "3" }, "geometry": { "type": "Point", "coordinates": [ -0.178090488852092, 51.418115096708902 ] } },
{ "type": "Feature", "properties": { "id": "940GZZLUCSM", "name_x": "Chesham", "lines": [ { "name": "Metropolitan", "network": "Tube" } ], "Lat": 51.70539, "Long": -0.61093, "Year": 1889.0, "zone": "9" }, "geometry": { "type": "Point", "coordinates": [ -0.610929988888927, 51.705389596894861 ] } },
{ "type": "Feature", "properties": { "id": "940GZZLUCST", "name_x": "Cannon Street", "lines": [ { "name": "District", "network": "Tube" }, { "name": "Circle", "network": "Tube" } ], "Lat": 51.511391, "Long": -0.090323, "Year": 1884.0, "zone": "1" }, "geometry": { "type": "Point", "coordinates": [ -0.090323188776097, 51.511391296763748 ] } },
{ "type": "Feature", "properties": { "id": "940GZZLUCTN", "name_x": "Camden Town", "lines": [ { "name": "Northern", "network": "Tube" } ], "Lat": 51.53894, "Long": -0.142557, "Year": 1907.0, "zone": "2" }, "geometry": { "type": "Point", "coordinates": [ -0.142556588782782, 51.538940396781868 ] } },
{ "type": "Feature", "properties": { "id": "940GZZLUCWL", "name_x": "Chigwell", "lines": [ { "name": "Central", "network": "Tube" } ], "Lat": 51.617826, "Long": 0.074748, "Year": 1948.0, "zone": "4" }, "geometry": { "type": "Point", "coordinates": [ 0.074748211334395, 51.617826496823852 ] } },
{ "type": "Feature", "properties": { "id": "940GZZLUCWP", "name_x": "Chiswick Park", "lines": [ { "name": "District", "network": "Tube" } ], "Lat": 51.494579, "Long": -0.268121, "Year": 1879.0, "zone": "3" }, "geometry": { "type": "Point", "coordinates": [ -0.268121488850625, 51.494579396757217 ] } },
{ "type": "Feature", "properties": { "id": "940GZZLUCWR", "name_x": "Canada Water", "lines": [ { "name": "Jubilee", "network": "Tube" }, { "name": "London Overground", "network": "Rail", "opened": 2010 }, { "name": "East London", "network": "Tube", "closed": 2007 } ], "Lat": 51.498002, "Long": -0.050208, "Year": 1999.0, "zone": "2" }, "geometry": { "type": "Point", "coordinates": [ -0.050208058654562, 51.498002303243481 ] } },
{ "type": "Feature", "properties": { "id": "940GZZLUCXY", "name_x": "Croxley", "lines": [ { "name": "Metropolitan", "network": "Tube" } ], "Lat": 51.647149, "Long": -0.441667, "Year": 1925.0, "zone": "7" }, "geometry": { "type": "Point", "coordinates": [ -0.441666888847806, 51.647149196855139 ] } },
{ "type": "Feature", "properties": { "id": "940GZZLUCYD", "name_x": "Chorleywood", "lines": [ { "name": "Metropolitan", "network": "Tube" } ], "Lat": 51.654181, "Long": -0.518356, "Year": 1889.0, "zone": "7" }, "geometry": { "type": "Point", "coordinates": [ -0.518355788874942, 51.654180896861021 ] } },
{ "type": "Feature", "properties": { "id": "940GZZLUCYF", "name_x": "Canary Wharf", "lines": [ { "name": "Jubilee", "network": "Tube" } ], "Lat": 51.503541, "Long": -0.018612, "Year": 1999.0, "zone": "2" }, "geometry": { "type": "Point", "coordinates": [ -0.018611977529247, 51.503540627018026 ] } },
{ "type": "Feature", "properties": { "id": "940GZZLUDBN", "name_x": "Debden", "lines": [ { "name": "Central", "network": "Tube" } ], "Lat": 51.645293, "Long": 0.083573, "Year": 1949.0, "zone": "6" }, "geometry": { "type": "Point", "coordinates": [ 0.083573311350676, 51.645292896840431 ] } },
{ "type": "Feature", "properties": { "id": "940GZZLUDGE", "name_x": "Dagenham East", "lines": [ { "name": "District", "network": "Tube" } ], "Lat": 51.54416, "Long": 0.165642, "Year": 1902.0, "zone": "5" }, "geometry": { "type": "Point", "coordinates": [ 0.165641611333001, 51.544159996775875 ] } },
{ "type": "Feature", "properties": { "id": "940GZZLUDGY", "name_x": "Dagenham Heathway", "lines": [ { "name": "District", "network": "Tube" } ], "Lat": 51.541672, "Long": 0.1477, "Year": 1932.0, "zone": "5" }, "geometry": { "type": "Point", "coordinates": [ 0.147699911325333, 51.541672196775039 ] } },
{ "type": "Feature", "properties": { "id": "940GZZLUDOH", "name_x": "Dollis Hill", "lines": [ { "name": "Jubilee", "network": "Tube" } ], "Lat": 51.55208, "Long": -0.239229, "Year": 1909.0, "zone": "3" }, "geometry": { "type": "Point", "coordinates": [ -0.239229088813033, 51.552079696792021 ] } },
{ "type": "Feature", "properties": { "id": "940GZZLUEAC", "name_x": "Elephant & Castle", "lines": [ { "name": "Bakerloo", "network": "Tube" }, { "name": "Northern", "network": "Tube" }, { "name": "National Rail", "network": "Rail" } ], "Lat": 51.495383, "Long": -0.100545, "Year": 1890.0, "zone": "1\/2" }, "geometry": { "type": "Point", "coordinates": [ -0.100544988787306, 51.495383296754312 ] } },
{ "type": "Feature", "properties": { "id": "940GZZLUEAE", "name_x": "Eastcote", "lines": [ { "name": "Metropolitan", "network": "Tube" }, { "name": "Piccadilly", "network": "Tube" } ], "Lat": 51.576608, "Long": -0.397075, "Year": 1906.0, "zone": "5" }, "geometry": { "type": "Point", "coordinates": [ -0.397074988862528, 51.576607796810322 ] } },
{ "type": "Feature", "properties": { "id": "940GZZLUEAN", "name_x": "East Acton", "lines": [ { "name": "Central", "network": "Tube" } ], "Lat": 51.516869, "Long": -0.247572, "Year": 1920.0, "zone": "2" }, "geometry": { "type": "Point", "coordinates": [ -0.247572188832521, 51.516869196770585 ] } },
{ "type": "Feature", "properties": { "id": "940GZZLUEBY", "name_x": "Ealing Broadway", "lines": [ { "name": "Central", "network": "Tube" }, { "name": "District", "network": "Tube" }, { "name": "Crossrail", "network": "Rail", "opened": 2018 }, { "name": "National Rail", "network": "Rail" } ], "Lat": 51.514785, "Long": -0.301543, "Year": 1879.0, "zone": "3" }, "geometry": { "type": "Point", "coordinates": [ -0.301543388853986, 51.514784996770459 ] } },
{ "type": "Feature", "properties": { "id": "940GZZLUECM", "name_x": "Ealing Common", "lines": [ { "name": "District", "network": "Tube" }, { "name": "Piccadilly", "network": "Tube" } ], "Lat": 51.509907, "Long": -0.288181, "Year": 1879.0, "zone": "3" }, "geometry": { "type": "Point", "coordinates": [ -0.288181188851183, 51.509906696767075 ] } },
{ "type": "Feature", "properties": { "id": "940GZZLUECT", "name_x": "Earl's Court", "lines": [ { "name": "District", "network": "Tube" }, { "name": "Piccadilly", "network": "Tube" } ], "Lat": 51.491482, "Long": -0.194168, "Year": 1878.0, "zone": "1\/2" }, "geometry": { "type": "Point", "coordinates": [ -0.194168088824142, 51.491481696753908 ] } },
{ "type": "Feature", "properties": { "id": "940GZZLUEFY", "name_x": "East Finchley", "lines": [ { "name": "Northern", "network": "Tube" } ], "Lat": 51.587566, "Long": -0.165219, "Year": 1939.0, "zone": "3" }, "geometry": { "type": "Point", "coordinates": [ -0.165218588768766, 51.587566296812156 ] } },
{ "type": "Feature", "properties": { "id": "940GZZLUEGW", "name_x": "Edgware", "lines": [ { "name": "Northern", "network": "Tube" } ], "Lat": 51.613989, "Long": -0.275504, "Year": 1924.0, "zone": "5" }, "geometry": { "type": "Point", "coordinates": [ -0.275503688798494, 51.613989296831051 ] } },
{ "type": "Feature", "properties": { "id": "940GZZLUEHM", "name_x": "East Ham", "lines": [ { "name": "District", "network": "Tube" }, { "name": "Hammersmith & City", "network": "Tube" } ], "Lat": 51.539243, "Long": 0.052011, "Year": 1902.0, "zone": "3\/4" }, "geometry": { "type": "Point", "coordinates": [ 0.052011411289357, 51.539242896776727 ] } },
{ "type": "Feature", "properties": { "id": "940GZZLUEMB", "name_x": "Embankment", "lines": [ { "name": "Bakerloo", "network": "Tube" }, { "name": "District", "network": "Tube" }, { "name": "Circle", "network": "Tube" }, { "name": "Northern", "network": "Tube" } ], "Lat": 51.507014, "Long": -0.122577, "Year": 1870.0, "zone": "1" }, "geometry": { "type": "Point", "coordinates": [ -0.122576588790082, 51.507013996761827 ] } },
{ "type": "Feature", "properties": { "id": "940GZZLUEPG", "name_x": "Epping", "lines": [ { "name": "Central", "network": "Tube" } ], "Lat": 51.694177, "Long": 0.114528, "Year": 1949.0, "zone": "6" }, "geometry": { "type": "Point", "coordinates": [ 0.114527911384641, 51.694176896869124 ] } },
{ "type": "Feature", "properties": { "id": "940GZZLUEPK", "name_x": "Elm Park", "lines": [ { "name": "District", "network": "Tube" } ], "Lat": 51.549643, "Long": 0.197464, "Year": 1935.0, "zone": "6" }, "geometry": { "type": "Point", "coordinates": [ 0.197463611346905, 51.549642696777994 ] } },
{ "type": "Feature", "properties": { "id": "940GZZLUEPY", "name_x": "East Putney", "lines": [ { "name": "District", "network": "Tube" } ], "Lat": 51.459069, "Long": -0.211062, "Year": 1889.0, "zone": "2\/3" }, "geometry": { "type": "Point", "coordinates": [ -0.21106178884537, 51.459069396734492 ] } },
{ "type": "Feature", "properties": { "id": "940GZZLUERB", "name_x": "Edgware Road (Bakerloo)", "lines": [ { "name": "Bakerloo", "network": "Tube" } ], "Lat": 51.520483, "Long": -0.170339, "Year": 1907.0, "zone": "1" }, "geometry": { "type": "Point", "coordinates": [ -0.170339088801654, 51.520482796771148 ] } },
{ "type": "Feature", "properties": { "id": "940GZZLUERC", "name_x": "Edgware Road", "lines": [ { "name": "District", "network": "Tube" }, { "name": "Hammersmith & City", "network": "Tube" }, { "name": "Circle", "network": "Tube" } ], "Lat": 51.519731, "Long": -0.168088, "Year": 1863.0, "zone": "1" }, "geometry": { "type": "Point", "coordinates": [ -0.168087788801188, 51.519731496770646 ] } },
{ "type": "Feature", "properties": { "id": "940GZZLUESQ", "name_x": "Euston Square", "lines": [ { "name": "Hammersmith & City", "network": "Tube" }, { "name": "Circle", "network": "Tube" }, { "name": "Metropolitan", "network": "Tube" } ], "Lat": 51.525684, "Long": -0.135534, "Year": 1863.0, "zone": "1" }, "geometry": { "type": "Point", "coordinates": [ -0.135533888786142, 51.52568399677358 ] } },
{ "type": "Feature", "properties": { "id": "940GZZLUEUS", "name_x": "Euston", "lines": [ { "name": "Northern", "network": "Tube" }, { "name": "London Overground", "network": "Rail", "opened": 2007 }, { "name": "Victoria", "network": "Tube" }, { "name": "National Rail", "network": "Rail" } ], "Lat": 51.528432, "Long": -0.134286, "Year": 1907.0, "zone": "1" }, "geometry": { "type": "Point", "coordinates": [ -0.134285634335299, 51.528432379096046 ] } },
{ "type": "Feature", "properties": { "id": "940GZZLUFBY", "name_x": "Fulham Broadway", "lines": [ { "name": "District", "network": "Tube" } ], "Lat": 51.480184, "Long": -0.195281, "Year": 1870.0, "zone": "2" }, "geometry": { "type": "Point", "coordinates": [ -0.195280888829643, 51.480184196747075 ] } },
{ "type": "Feature", "properties": { "id": "940GZZLUFCN", "name_x": "Farringdon", "lines": [ { "name": "Hammersmith & City", "network": "Tube" }, { "name": "Circle", "network": "Tube" }, { "name": "Metropolitan", "network": "Tube" }, { "name": "Crossrail", "network": "Rail", "opened": 2018 }, { "name": "National Rail", "network": "Rail" } ], "Lat": 51.520207, "Long": -0.104666, "Year": 1863.0, "zone": "1" }, "geometry": { "type": "Point", "coordinates": [ -0.104665688777175, 51.520206996769502 ] } },
{ "type": "Feature", "properties": { "id": "940GZZLUFLP", "name_x": "Fairlop", "lines": [ { "name": "Central", "network": "Tube" } ], "Lat": 51.595949, "Long": 0.091113, "Year": 1948.0, "zone": "4" }, "geometry": { "type": "Point", "coordinates": [ 0.091113211330253, 51.595949246809937 ] } },
{ "type": "Feature", "properties": { "id": "940GZZLUFPK", "name_x": "Finsbury Park", "lines": [ { "name": "Piccadilly", "network": "Tube" }, { "name": "Victoria", "network": "Tube" }, { "name": "National Rail", "network": "Rail" } ], "Lat": 51.564639, "Long": -0.106338, "Year": 1906.0, "zone": "2" }, "geometry": { "type": "Point", "coordinates": [ -0.106337568836182, 51.56463857774412 ] } },
{ "type": "Feature", "properties": { "id": "940GZZLUFYC", "name_x": "Finchley Central", "lines": [ { "name": "Northern", "network": "Tube" } ], "Lat": 51.600683, "Long": -0.191944, "Year": 1940.0, "zone": "4" }, "geometry": { "type": "Point", "coordinates": [ -0.191944088772743, 51.600683196820967 ] } },
{ "type": "Feature", "properties": { "id": "940GZZLUFYR", "name_x": "Finchley Road", "lines": [ { "name": "Jubilee", "network": "Tube" }, { "name": "Metropolitan", "network": "Tube" } ], "Lat": 51.547377, "Long": -0.180884, "Year": 1879.0, "zone": "2" }, "geometry": { "type": "Point", "coordinates": [ -0.18088378879321, 51.547377396787908 ] } },
{ "type": "Feature", "properties": { "id": "940GZZLUGBY", "name_x": "Gunnersbury", "lines": [ { "name": "District", "network": "Tube" }, { "name": "London Overground", "network": "Rail", "opened": 2007 } ], "Lat": 51.491614, "Long": -0.27538, "Year": 1877.0, "zone": "3" }, "geometry": { "type": "Point", "coordinates": [ -0.275379788854764, 51.491614296755642 ] } },
{ "type": "Feature", "properties": { "id": "940GZZLUGDG", "name_x": "Goodge Street", "lines": [ { "name": "Northern", "network": "Tube" } ], "Lat": 51.520515, "Long": -0.134358, "Year": 1907.0, "zone": "1" }, "geometry": { "type": "Point", "coordinates": [ -0.134358188788156, 51.52051499677026 ] } },
{ "type": "Feature", "properties": { "id": "940GZZLUGFD", "name_x": "Greenford", "lines": [ { "name": "Central", "network": "Tube" }, { "name": "National Rail", "network": "Rail" } ], "Lat": 51.542188, "Long": -0.344816, "Year": 1947.0, "zone": "4" }, "geometry": { "type": "Point", "coordinates": [ -0.344816288857999, 51.542187696788005 ] } },
{ "type": "Feature", "properties": { "id": "940GZZLUGGH", "name_x": "Grange Hill", "lines": [ { "name": "Central", "network": "Tube" } ], "Lat": 51.613121, "Long": 0.092516, "Year": 1948.0, "zone": "4" }, "geometry": { "type": "Point", "coordinates": [ 0.092516111338853, 51.613120996820498 ] } },
{ "type": "Feature", "properties": { "id": "940GZZLUGGN", "name_x": "Golders Green", "lines": [ { "name": "Northern", "network": "Tube" } ], "Lat": 51.572397, "Long": -0.194086, "Year": 1907.0, "zone": "3" }, "geometry": { "type": "Point", "coordinates": [ -0.194086188786571, 51.572397296803501 ] } },
{ "type": "Feature", "properties": { "id": "940GZZLUGHK", "name_x": "Goldhawk Road", "lines": [ { "name": "Circle", "network": "Tube", "opened": 2009 }, { "name": "Hammersmith & City", "network": "Tube" } ], "Lat": 51.501947, "Long": -0.226674, "Year": 1914.0, "zone": "2" }, "geometry": { "type": "Point", "coordinates": [ -0.226673988831521, 51.501946696761081 ] } },
{ "type": "Feature", "properties": { "id": "940GZZLUGPK", "name_x": "Green Park", "lines": [ { "name": "Jubilee", "network": "Tube" }, { "name": "Piccadilly", "network": "Tube" }, { "name": "Victoria", "network": "Tube" } ], "Lat": 51.506557, "Long": -0.143119, "Year": 1906.0, "zone": "1" }, "geometry": { "type": "Point", "coordinates": [ -0.143118596634849, 51.506557424159325 ] } },
{ "type": "Feature", "properties": { "id": "940GZZLUGPS", "name_x": "Great Portland Street", "lines": [ { "name": "Hammersmith & City", "network": "Tube" }, { "name": "Circle", "network": "Tube" }, { "name": "Metropolitan", "network": "Tube" } ], "Lat": 51.523837, "Long": -0.143921, "Year": 1863.0, "zone": "1" }, "geometry": { "type": "Point", "coordinates": [ -0.143920888790149, 51.523836696772605 ] } },
{ "type": "Feature", "properties": { "id": "940GZZLUGTH", "name_x": "Gants Hill", "lines": [ { "name": "Central", "network": "Tube" } ], "Lat": 51.576609, "Long": 0.066351, "Year": 1947.0, "zone": "4" }, "geometry": { "type": "Point", "coordinates": [ 0.066350611312146, 51.576608996799052 ] } },
{ "type": "Feature", "properties": { "id": "940GZZLUGTR", "name_x": "Gloucester Road", "lines": [ { "name": "District", "network": "Tube" }, { "name": "Circle", "network": "Tube" }, { "name": "Piccadilly", "network": "Tube" } ], "Lat": 51.494438, "Long": -0.183472, "Year": 1868.0, "zone": "1" }, "geometry": { "type": "Point", "coordinates": [ -0.183471788818622, 51.494438371164449 ] } },
{ "type": "Feature", "properties": { "id": "940GZZLUHAI", "name_x": "Highbury & Islington", "lines": [ { "name": "London Overground", "network": "Rail", "opened": 2007 }, { "name": "Victoria", "network": "Tube" }, { "name": "National Rail", "network": "Rail" } ], "Lat": 51.546267, "Long": -0.103525, "Year": 1968.0, "zone": "2" }, "geometry": { "type": "Point", "coordinates": [ -0.103525336078746, 51.546266736092036 ] } },
{ "type": "Feature", "properties": { "id": "940GZZLUHAW", "name_x": "Harrow & Wealdstone", "lines": [ { "name": "Bakerloo", "network": "Tube" }, { "name": "London Overground", "network": "Rail", "opened": 2007 }, { "name": "National Rail", "network": "Rail" } ], "Lat": 51.592321, "Long": -0.335399, "Year": 1917.0, "zone": "5" }, "geometry": { "type": "Point", "coordinates": [ -0.335398788831412, 51.592321296818852 ] } },
{ "type": "Feature", "properties": { "id": "940GZZLUHBN", "name_x": "Holborn", "lines": [ { "name": "Central", "network": "Tube" }, { "name": "Piccadilly", "network": "Tube" } ], "Lat": 51.517615, "Long": -0.120177, "Year": 1906.0, "zone": "1" }, "geometry": { "type": "Point", "coordinates": [ -0.120177118376716, 51.517615035075494 ] } },
{ "type": "Feature", "properties": { "id": "940GZZLUHBT", "name_x": "High Barnet", "lines": [ { "name": "Northern", "network": "Tube" } ], "Lat": 51.650932, "Long": -0.194816, "Year": 1940.0, "zone": "5" }, "geometry": { "type": "Point", "coordinates": [ -0.194815888750668, 51.650932396851942 ] } },
{ "type": "Feature", "properties": { "id": "940GZZLUHCH", "name_x": "Hornchurch", "lines": [ { "name": "District", "network": "Tube" } ], "Lat": 51.554005, "Long": 0.218542, "Year": 1902.0, "zone": "6" }, "geometry": { "type": "Point", "coordinates": [ 0.218541611356613, 51.554005096779747 ] } },
{ "type": "Feature", "properties": { "id": "940GZZLUHCL", "name_x": "Hendon Central", "lines": [ { "name": "Northern", "network": "Tube" } ], "Lat": 51.583133, "Long": -0.226099, "Year": 1923.0, "zone": "3\/4" }, "geometry": { "type": "Point", "coordinates": [ -0.226098688793854, 51.583132896810866 ] } },
{ "type": "Feature", "properties": { "id": "940GZZLUHGD", "name_x": "Hillingdon", "lines": [ { "name": "Metropolitan", "network": "Tube" }, { "name": "Piccadilly", "network": "Tube" } ], "Lat": 51.553725, "Long": -0.450198, "Year": 1923.0, "zone": "6" }, "geometry": { "type": "Point", "coordinates": [ -0.450198388893625, 51.553725496797085 ] } },
{ "type": "Feature", "properties": { "id": "940GZZLUHGR", "name_x": "Hanger Lane", "lines": [ { "name": "Central", "network": "Tube" } ], "Lat": 51.530298, "Long": -0.293287, "Year": 1947.0, "zone": "3" }, "geometry": { "type": "Point", "coordinates": [ -0.293286888843738, 51.530297696779826 ] } },
{ "type": "Feature", "properties": { "id": "940GZZLUHGT", "name_x": "Highgate", "lines": [ { "name": "Northern", "network": "Tube" } ], "Lat": 51.577645, "Long": -0.145782, "Year": 1941.0, "zone": "3" }, "geometry": { "type": "Point", "coordinates": [ -0.145781988766032, 51.577644596805669 ] } },
{ "type": "Feature", "properties": { "id": "940GZZLUHLT", "name_x": "Hainault", "lines": [ { "name": "Central", "network": "Tube" } ], "Lat": 51.603709, "Long": 0.093472, "Year": 1948.0, "zone": "4" }, "geometry": { "type": "Point", "coordinates": [ 0.09347181133478, 51.603709496814702 ] } },
{ "type": "Feature", "properties": { "id": "940GZZLUHNX", "name_x": "Hatton Cross", "lines": [ { "name": "Piccadilly", "network": "Tube" } ], "Lat": 51.466721, "Long": -0.423116, "Year": 1975.0, "zone": "5\/6" }, "geometry": { "type": "Point", "coordinates": [ -0.423116488922801, 51.46672059674296 ] } },
{ "type": "Feature", "properties": { "id": "940GZZLUHOH", "name_x": "Harrow-on-the-Hill", "lines": [ { "name": "Metropolitan", "network": "Tube" } ], "Lat": 51.579238, "Long": -0.336305, "Year": 1880.0, "zone": "5" }, "geometry": { "type": "Point", "coordinates": [ -0.336304688837799, 51.579237696810821 ] } },
{ "type": "Feature", "properties": { "id": "940GZZLUHPC", "name_x": "Hyde Park Corner", "lines": [ { "name": "Piccadilly", "network": "Tube" } ], "Lat": 51.502961, "Long": -0.152557, "Year": 1906.0, "zone": "1" }, "geometry": { "type": "Point", "coordinates": [ -0.152557388803075, 51.502960776760062 ] } },
{ "type": "Feature", "properties": { "id": "940GZZLUHPK", "name_x": "Holland Park", "lines": [ { "name": "Central", "network": "Tube" } ], "Lat": 51.507277, "Long": -0.205642, "Year": 1900.0, "zone": "2" }, "geometry": { "type": "Point", "coordinates": [ -0.205642088821151, 51.507276596763859 ] } },
{ "type": "Feature", "properties": { "id": "940GZZLUHR4", "name_x": "Heathrow Terminal 4", "lines": [ { "name": "Piccadilly", "network": "Tube" }, { "name": "Crossrail", "network": "Rail", "opened": 2018 }, { "name": "National Rail", "network": "Rail" } ], "Lat": 51.458659, "Long": -0.445435, "Year": 1986.0, "zone": "6" }, "geometry": { "type": "Point", "coordinates": [ -0.445434588935143, 51.458658996738336 ] } },
{ "type": "Feature", "properties": { "id": "940GZZLUHR5", "name_x": "Heathrow Terminal 5", "lines": [ { "name": "Piccadilly", "network": "Tube", "opened": 2008 }, { "name": "National Rail", "network": "Rail" } ], "Lat": 51.472548, "Long": -0.490104, "Year": 2008.0, "zone": "6" }, "geometry": { "type": "Point", "coordinates": [ -0.490104288946156, 51.472547696747654 ] } },
{ "type": "Feature", "properties": { "id": "940GZZLUHRC", "name_x": "Heathrow Terminals 2 & 3", "lines": [ { "name": "Piccadilly", "network": "Tube" }, { "name": "Crossrail", "network": "Rail", "opened": 2018 }, { "name": "National Rail", "network": "Rail" } ], "Lat": 51.472505, "Long": -0.455001, "Year": 1977.0, "zone": "6" }, "geometry": { "type": "Point", "coordinates": [ -0.455001288932465, 51.472504796747103 ] } },
{ "type": "Feature", "properties": { "id": "940GZZLUHSK", "name_x": "High Street Kensington", "lines": [ { "name": "District", "network": "Tube" }, { "name": "Circle", "network": "Tube" } ], "Lat": 51.500941, "Long": -0.19266, "Year": 1868.0, "zone": "1" }, "geometry": { "type": "Point", "coordinates": [ -0.192659988819173, 51.500941096759732 ] } },
{ "type": "Feature", "properties": { "id": "940GZZLUHSN", "name_x": "Harlesden", "lines": [ { "name": "Bakerloo", "network": "Tube" }, { "name": "London Overground", "network": "Rail", "opened": 2007 } ], "Lat": 51.53637, "Long": -0.257954, "Year": 1917.0, "zone": "3" }, "geometry": { "type": "Point", "coordinates": [ -0.257953688827513, 51.536369996782753 ] } },
{ "type": "Feature", "properties": { "id": "940GZZLUHTD", "name_x": "Hampstead", "lines": [ { "name": "Northern", "network": "Tube" } ], "Lat": 51.556394, "Long": -0.178196, "Year": 1907.0, "zone": "2\/3" }, "geometry": { "type": "Point", "coordinates": [ -0.178195688788037, 51.556394196793406 ] } },
{ "type": "Feature", "properties": { "id": "940GZZLUHWC", "name_x": "Hounslow Central", "lines": [ { "name": "Piccadilly", "network": "Tube" } ], "Lat": 51.471306, "Long": -0.366413, "Year": 1886.0, "zone": "4" }, "geometry": { "type": "Point", "coordinates": [ -0.366413088898867, 51.471306096744911 ] } },
{ "type": "Feature", "properties": { "id": "940GZZLUHWE", "name_x": "Hounslow East", "lines": [ { "name": "Piccadilly", "network": "Tube" } ], "Lat": 51.473228, "Long": -0.356313, "Year": 1909.0, "zone": "4" }, "geometry": { "type": "Point", "coordinates": [ -0.356313088894069, 51.473228396745867 ] } },
{ "type": "Feature", "properties": { "id": "940GZZLUHWT", "name_x": "Hounslow West", "lines": [ { "name": "Piccadilly", "network": "Tube" } ], "Lat": 51.473525, "Long": -0.386447, "Year": 1884.0, "zone": "5" }, "geometry": { "type": "Point", "coordinates": [ -0.386447088905527, 51.473525396746481 ] } },
{ "type": "Feature", "properties": { "id": "940GZZLUHWY", "name_x": "Holloway Road", "lines": [ { "name": "Piccadilly", "network": "Tube" } ], "Lat": 51.55273, "Long": -0.113009, "Year": 1906.0, "zone": "2" }, "geometry": { "type": "Point", "coordinates": [ -0.113008688765262, 51.552730296789548 ] } },
{ "type": "Feature", "properties": { "id": "940GZZLUICK", "name_x": "Ickenham", "lines": [ { "name": "Metropolitan", "network": "Tube" }, { "name": "Piccadilly", "network": "Tube" } ], "Lat": 51.561972, "Long": -0.442056, "Year": 1904.0, "zone": "6" }, "geometry": { "type": "Point", "coordinates": [ -0.442056088886602, 51.561972396802162 ] } },
{ "type": "Feature", "properties": { "id": "940GZZLUKBN", "name_x": "Kilburn", "lines": [ { "name": "Jubilee", "network": "Tube" } ], "Lat": 51.547025, "Long": -0.205286, "Year": 1879.0, "zone": "2" }, "geometry": { "type": "Point", "coordinates": [ -0.205286188802631, 51.547024696788185 ] } },
{ "type": "Feature", "properties": { "id": "940GZZLUKBY", "name_x": "Kingsbury", "lines": [ { "name": "Jubilee", "network": "Tube" } ], "Lat": 51.584716, "Long": -0.278622, "Year": 1932.0, "zone": "4" }, "geometry": { "type": "Point", "coordinates": [ -0.278622488813085, 51.584716496812973 ] } },
{ "type": "Feature", "properties": { "id": "940GZZLUKEN", "name_x": "Kenton", "lines": [ { "name": "Bakerloo", "network": "Tube" }, { "name": "London Overground", "network": "Rail", "opened": 2007 } ], "Lat": 51.58153, "Long": -0.31662, "Year": 1917.0, "zone": "4" }, "geometry": { "type": "Point", "coordinates": [ -0.316619988829132, 51.581530496811695 ] } },
{ "type": "Feature", "properties": { "id": "940GZZLUKNB", "name_x": "Knightsbridge", "lines": [ { "name": "Piccadilly", "network": "Tube" } ], "Lat": 51.501606, "Long": -0.160592, "Year": 1906.0, "zone": "1" }, "geometry": { "type": "Point", "coordinates": [ -0.160591588806824, 51.501605696759498 ] } },
{ "type": "Feature", "properties": { "id": "940GZZLUKNG", "name_x": "Kennington", "lines": [ { "name": "Northern", "network": "Tube" } ], "Lat": 51.488818, "Long": -0.105553, "Year": 1890.0, "zone": "2" }, "geometry": { "type": "Point", "coordinates": [ -0.105552802414991, 51.488817986033609 ] } },
{ "type": "Feature", "properties": { "id": "940GZZLUKOY", "name_x": "Kensington (Olympia)", "lines": [ { "name": "District", "network": "Tube" }, { "name": "London Overground", "network": "Rail", "opened": 2007 }, { "name": "National Rail", "network": "Rail" } ], "Lat": 51.497534, "Long": -0.209593, "Year": 1864.0, "zone": "2" }, "geometry": { "type": "Point", "coordinates": [ -0.209592688697171, 51.497533785323753 ] } },
{ "type": "Feature", "properties": { "id": "940GZZLUKPK", "name_x": "Kilburn Park", "lines": [ { "name": "Bakerloo", "network": "Tube" } ], "Lat": 51.535154, "Long": -0.194134, "Year": 1915.0, "zone": "2" }, "geometry": { "type": "Point", "coordinates": [ -0.194133888803833, 51.535154496780763 ] } },
{ "type": "Feature", "properties": { "id": "940GZZLUKSH", "name_x": "Kentish Town", "lines": [ { "name": "Northern", "network": "Tube" } ], "Lat": 51.55031, "Long": -0.14074, "Year": 1907.0, "zone": "2" }, "geometry": { "type": "Point", "coordinates": [ -0.140740176950544, 51.550310335768472 ] } },
{ "type": "Feature", "properties": { "id": "940GZZLUKSL", "name_x": "Kensal Green", "lines": [ { "name": "Bakerloo", "network": "Tube" }, { "name": "London Overground", "network": "Rail", "opened": 2007 } ], "Lat": 51.530573, "Long": -0.224596, "Year": 1916.0, "zone": "2" }, "geometry": { "type": "Point", "coordinates": [ -0.224595888817475, 51.53057299677846 ] } },
{ "type": "Feature", "properties": { "id": "940GZZLUKSX", "name_x": "King's Cross St. Pancras", "lines": "[ { \"name\": \"Hammersmith & City\", \"network\": \"Tube\" }, { \"name\": \"Circle\", \"network\": \"Tube\" }, { \"name\": \"Metropolitan\", \"network\": \"Tube\" }, { \"name\": \"Northern\", \"network\": \"Tube\" }, { \"name\": \"Piccadilly\", \"network\": \"Tube\" }, { \"name\": \"Victoria\", \"", "Lat": 51.530605, "Long": -0.122944, "Year": 1863.0, "zone": "1" }, "geometry": { "type": "Point", "coordinates": [ -0.122943588779208, 51.530604796776288 ] } },
{ "type": "Feature", "properties": { "id": "940GZZLUKWG", "name_x": "Kew Gardens", "lines": [ { "name": "District", "network": "Tube" }, { "name": "London Overground", "network": "Rail", "opened": 2007 } ], "Lat": 51.477077, "Long": -0.285013, "Year": 1877.0, "zone": "3\/4" }, "geometry": { "type": "Point", "coordinates": [ -0.285013088865071, 51.47707729674687 ] } },
{ "type": "Feature", "properties": { "id": "940GZZLULAD", "name_x": "Ladbroke Grove", "lines": [ { "name": "Circle", "network": "Tube", "opened": 2009 }, { "name": "Hammersmith & City", "network": "Tube" } ], "Lat": 51.517268, "Long": -0.210942, "Year": 1864.0, "zone": "2" }, "geometry": { "type": "Point", "coordinates": [ -0.210942188818422, 51.517268096770067 ] } },
{ "type": "Feature", "properties": { "id": "940GZZLULBN", "name_x": "Lambeth North", "lines": [ { "name": "Bakerloo", "network": "Tube" } ], "Lat": 51.498886, "Long": -0.112287, "Year": 1906.0, "zone": "1" }, "geometry": { "type": "Point", "coordinates": [ -0.112287488790059, 51.498886396756745 ] } },
{ "type": "Feature", "properties": { "id": "940GZZLULGN", "name_x": "Loughton", "lines": [ { "name": "Central", "network": "Tube" } ], "Lat": 51.641361, "Long": 0.055255, "Year": 1948.0, "zone": "6" }, "geometry": { "type": "Point", "coordinates": [ 0.055254911338352, 51.641360596838922 ] } },
{ "type": "Feature", "properties": { "id": "940GZZLULGT", "name_x": "Lancaster Gate", "lines": [ { "name": "Central", "network": "Tube" } ], "Lat": 51.511871, "Long": -0.175145, "Year": 1900.0, "zone": "1" }, "geometry": { "type": "Point", "coordinates": [ -0.175144888807495, 51.511871296766003 ] } },
{ "type": "Feature", "properties": { "id": "940GZZLULNB", "name_x": "London Bridge", "lines": [ { "name": "Jubilee", "network": "Tube" }, { "name": "Northern", "network": "Tube" }, { "name": "National Rail", "network": "Rail" } ], "Lat": 51.50502, "Long": -0.089635, "Year": 1900.0, "zone": "1" }, "geometry": { "type": "Point", "coordinates": [ -0.08963498153264, 51.505020224787131 ] } },
{ "type": "Feature", "properties": { "id": "940GZZLULRD", "name_x": "Latimer Road", "lines": [ { "name": "Circle", "network": "Tube", "opened": 2009 }, { "name": "Hammersmith & City", "network": "Tube" } ], "Lat": 51.513397, "Long": -0.217909, "Year": 1868.0, "zone": "2" }, "geometry": { "type": "Point", "coordinates": [ -0.217909488822897, 51.51339669676787 ] } },
{ "type": "Feature", "properties": { "id": "940GZZLULSQ", "name_x": "Leicester Square", "lines": [ { "name": "Northern", "network": "Tube" }, { "name": "Piccadilly", "network": "Tube" } ], "Lat": 51.511223, "Long": -0.12849, "Year": 1906.0, "zone": "1" }, "geometry": { "type": "Point", "coordinates": [ -0.128489593621111, 51.51122271692725 ] } },
{ "type": "Feature", "properties": { "id": "940GZZLULVT", "name_x": "Liverpool Street", "lines": "[ { \"name\": \"Central\", \"network\": \"Tube\" }, { \"name\": \"Hammersmith & City\", \"network\": \"Tube\" }, { \"name\": \"Circle\", \"network\": \"Tube\" }, { \"name\": \"Metropolitan\", \"network\": \"Tube\" }, { \"name\": \"London Overground\", \"network\": \"Rail\", \"opened\": 2015 }, {", "Lat": 51.5173, "Long": -0.083213, "Year": 1875.0, "zone": "1" }, "geometry": { "type": "Point", "coordinates": [ -0.083213014052717, 51.517300031935292 ] } },
{ "type": "Feature", "properties": { "id": "940GZZLULYN", "name_x": "Leyton", "lines": [ { "name": "Central", "network": "Tube" } ], "Lat": 51.556631, "Long": -0.005407, "Year": 1947.0, "zone": "3" }, "geometry": { "type": "Point", "coordinates": [ -0.005407188723552, 51.556631296789021 ] } },
{ "type": "Feature", "properties": { "id": "940GZZLULYS", "name_x": "Leytonstone", "lines": [ { "name": "Central", "network": "Tube" } ], "Lat": 51.568581, "Long": 0.008403, "Year": 1947.0, "zone": "3\/4" }, "geometry": { "type": "Point", "coordinates": [ 0.008402611287181, 51.568581396795992 ] } },
{ "type": "Feature", "properties": { "id": "940GZZLUMBA", "name_x": "Marble Arch", "lines": [ { "name": "Central", "network": "Tube" } ], "Lat": 51.51354, "Long": -0.157836, "Year": 1900.0, "zone": "1" }, "geometry": { "type": "Point", "coordinates": [ -0.157835588800253, 51.513539796766736 ] } },
{ "type": "Feature", "properties": { "id": "940GZZLUMDN", "name_x": "Morden", "lines": [ { "name": "Northern", "network": "Tube" } ], "Lat": 51.402345, "Long": -0.194734, "Year": 1926.0, "zone": "4" }, "geometry": { "type": "Point", "coordinates": [ -0.194733688865711, 51.402345496699638 ] } },
{ "type": "Feature", "properties": { "id": "940GZZLUMED", "name_x": "Mile End", "lines": [ { "name": "Central", "network": "Tube" }, { "name": "District", "network": "Tube" }, { "name": "Hammersmith & City", "network": "Tube" } ], "Lat": 51.525356, "Long": -0.033445, "Year": 1902.0, "zone": "2" }, "geometry": { "type": "Point", "coordinates": [ -0.033444888748534, 51.525356306770846 ] } },
{ "type": "Feature", "properties": { "id": "940GZZLUMGT", "name_x": "Moorgate", "lines": [ { "name": "Hammersmith & City", "network": "Tube" }, { "name": "Circle", "network": "Tube" }, { "name": "Metropolitan", "network": "Tube" }, { "name": "Northern", "network": "Tube" } ], "Lat": 51.51812, "Long": -0.08829, "Year": 1865.0, "zone": "1" }, "geometry": { "type": "Point", "coordinates": [ -0.088290110886589, 51.518119775424225 ] } },
{ "type": "Feature", "properties": { "id": "940GZZLUMHL", "name_x": "Mill Hill East", "lines": [ { "name": "Northern", "network": "Tube" } ], "Lat": 51.60825, "Long": -0.210151, "Year": 1941.0, "zone": "4" }, "geometry": { "type": "Point", "coordinates": [ -0.210150588776173, 51.608249996826032 ] } },
{ "type": "Feature", "properties": { "id": "940GZZLUMPK", "name_x": "Moor Park", "lines": [ { "name": "Metropolitan", "network": "Tube" } ], "Lat": 51.629774, "Long": -0.432234, "Year": 1910.0, "zone": "6\/7" }, "geometry": { "type": "Point", "coordinates": [ -0.432234388852066, 51.629774096844073 ] } },
{ "type": "Feature", "properties": { "id": "940GZZLUMRH", "name_x": "Manor House", "lines": [ { "name": "Piccadilly", "network": "Tube" } ], "Lat": 51.570491, "Long": -0.096186, "Year": 1932.0, "zone": "2\/3" }, "geometry": { "type": "Point", "coordinates": [ -0.096185685578689, 51.570490776389249 ] } },
{ "type": "Feature", "properties": { "id": "940GZZLUMSH", "name_x": "Mansion House", "lines": [ { "name": "District", "network": "Tube" }, { "name": "Circle", "network": "Tube" } ], "Lat": 51.51191, "Long": -0.093754, "Year": 1871.0, "zone": "1" }, "geometry": { "type": "Point", "coordinates": [ -0.093754088777075, 51.511910496764074 ] } },
{ "type": "Feature", "properties": { "id": "940GZZLUMTC", "name_x": "Mornington Crescent", "lines": [ { "name": "Northern", "network": "Tube" } ], "Lat": 51.534358, "Long": -0.138539, "Year": 1907.0, "zone": "2" }, "geometry": { "type": "Point", "coordinates": [ -0.138539288783363, 51.534357896778943 ] } },
{ "type": "Feature", "properties": { "id": "940GZZLUMVL", "name_x": "Maida Vale", "lines": [ { "name": "Bakerloo", "network": "Tube" } ], "Lat": 51.529802, "Long": -0.185775, "Year": 1915.0, "zone": "2" }, "geometry": { "type": "Point", "coordinates": [ -0.185774588803099, 51.529802496777222 ] } },
{ "type": "Feature", "properties": { "id": "940GZZLUMYB", "name_x": "Marylebone", "lines": [ { "name": "Bakerloo", "network": "Tube" }, { "name": "National Rail", "network": "Rail" } ], "Lat": 51.522276, "Long": -0.163222, "Year": 1906.0, "zone": "1" }, "geometry": { "type": "Point", "coordinates": [ -0.163221588798251, 51.522275996772123 ] } },
{ "type": "Feature", "properties": { "id": "940GZZLUNAN", "name_x": "North Acton", "lines": [ { "name": "Central", "network": "Tube" } ], "Lat": 51.523605, "Long": -0.259714, "Year": 1923.0, "zone": "2\/3" }, "geometry": { "type": "Point", "coordinates": [ -0.259713615198734, 51.523604742211091 ] } },
{ "type": "Feature", "properties": { "id": "940GZZLUNBP", "name_x": "Newbury Park", "lines": [ { "name": "Central", "network": "Tube" } ], "Lat": 51.575598, "Long": 0.089947, "Year": 1947.0, "zone": "4" }, "geometry": { "type": "Point", "coordinates": [ 0.089947311320316, 51.575597996797626 ] } },
{ "type": "Feature", "properties": { "id": "940GZZLUNDN", "name_x": "Neasden", "lines": [ { "name": "Jubilee", "network": "Tube" } ], "Lat": 51.554168, "Long": -0.249963, "Year": 1880.0, "zone": "3" }, "geometry": { "type": "Point", "coordinates": [ -0.249963088816287, 51.554168196793569 ] } },
{ "type": "Feature", "properties": { "id": "940GZZLUNEN", "name_x": "North Ealing", "lines": [ { "name": "Piccadilly", "network": "Tube" } ], "Lat": 51.517695, "Long": -0.288536, "Year": 1903.0, "zone": "3" }, "geometry": { "type": "Point", "coordinates": [ -0.288535588847708, 51.517694596771946 ] } },
{ "type": "Feature", "properties": { "id": "940GZZLUNFD", "name_x": "Northfields", "lines": [ { "name": "Piccadilly", "network": "Tube" } ], "Lat": 51.499604, "Long": -0.313162, "Year": 1908.0, "zone": "3" }, "geometry": { "type": "Point", "coordinates": [ -0.313162346408205, 51.499603589322874 ] } },
{ "type": "Feature", "properties": { "id": "940GZZLUNGW", "name_x": "North Greenwich", "lines": [ { "name": "Jubilee", "network": "Tube" } ], "Lat": 51.500094, "Long": 0.003885, "Year": 1999.0, "zone": "2\/3" }, "geometry": { "type": "Point", "coordinates": [ 0.003884811253386, 51.500093596754482 ] } },
{ "type": "Feature", "properties": { "id": "940GZZLUNHA", "name_x": "North Harrow", "lines": [ { "name": "Metropolitan", "network": "Tube" } ], "Lat": 51.585, "Long": -0.362797, "Year": 1915.0, "zone": "5" }, "geometry": { "type": "Point", "coordinates": [ -0.362797488845388, 51.584999596814896 ] } },
{ "type": "Feature", "properties": { "id": "940GZZLUNHG", "name_x": "Notting Hill Gate", "lines": [ { "name": "Central", "network": "Tube" }, { "name": "District", "network": "Tube" }, { "name": "Circle", "network": "Tube" } ], "Lat": 51.5092, "Long": -0.196095, "Year": 1868.0, "zone": "1\/2" }, "geometry": { "type": "Point", "coordinates": [ -0.196094673572077, 51.509199775306286 ] } },
{ "type": "Feature", "properties": { "id": "940GZZLUNHT", "name_x": "Northolt", "lines": [ { "name": "Central", "network": "Tube" } ], "Lat": 51.548391, "Long": -0.369071, "Year": 1948.0, "zone": "5" }, "geometry": { "type": "Point", "coordinates": [ -0.369070988864564, 51.548390896792341 ] } },
{ "type": "Feature", "properties": { "id": "940GZZLUNKP", "name_x": "Northwick Park", "lines": [ { "name": "Metropolitan", "network": "Tube" } ], "Lat": 51.578488, "Long": -0.317777, "Year": 1923.0, "zone": "4" }, "geometry": { "type": "Point", "coordinates": [ -0.317777088831008, 51.578488196809928 ] } },
{ "type": "Feature", "properties": { "id": "940GZZLUNOW", "name_x": "Northwood", "lines": [ { "name": "Metropolitan", "network": "Tube" } ], "Lat": 51.610785, "Long": -0.423729, "Year": 1887.0, "zone": "6" }, "geometry": { "type": "Point", "coordinates": [ -0.423729388857339, 51.610785496832079 ] } },
{ "type": "Feature", "properties": { "id": "940GZZLUNWH", "name_x": "Northwood Hills", "lines": [ { "name": "Metropolitan", "network": "Tube" } ], "Lat": 51.600365, "Long": -0.408963, "Year": 1933.0, "zone": "6" }, "geometry": { "type": "Point", "coordinates": [ -0.408962788856343, 51.60036489682534 ] } },
{ "type": "Feature", "properties": { "id": "940GZZLUNWY", "name_x": "North Wembley", "lines": [ { "name": "Bakerloo", "network": "Tube" }, { "name": "London Overground", "network": "Rail", "opened": 2007 } ], "Lat": 51.562406, "Long": -0.303875, "Year": 1917.0, "zone": "4" }, "geometry": { "type": "Point", "coordinates": [ -0.303874788833014, 51.562405896799817 ] } },
{ "type": "Feature", "properties": { "id": "940GZZLUOAK", "name_x": "Oakwood", "lines": [ { "name": "Piccadilly", "network": "Tube" } ], "Lat": 51.647377, "Long": -0.131485, "Year": 1933.0, "zone": "5" }, "geometry": { "type": "Point", "coordinates": [ -0.131485188728448, 51.647376696848198 ] } },
{ "type": "Feature", "properties": { "id": "940GZZLUODS", "name_x": "Old Street", "lines": [ { "name": "Northern", "network": "Tube" } ], "Lat": 51.525628, "Long": -0.087542, "Year": 1901.0, "zone": "1" }, "geometry": { "type": "Point", "coordinates": [ -0.087541788768362, 51.52562839677239 ] } },
{ "type": "Feature", "properties": { "id": "940GZZLUOSY", "name_x": "Osterley", "lines": [ { "name": "Piccadilly", "network": "Tube" } ], "Lat": 51.481124, "Long": -0.352296, "Year": 1883.0, "zone": "4" }, "geometry": { "type": "Point", "coordinates": [ -0.352296488888953, 51.481124096750591 ] } },
{ "type": "Feature", "properties": { "id": "940GZZLUOVL", "name_x": "Oval", "lines": [ { "name": "Northern", "network": "Tube" } ], "Lat": 51.481829, "Long": -0.112368, "Year": 1890.0, "zone": "2" }, "geometry": { "type": "Point", "coordinates": [ -0.11236848879804, 51.481829096746253 ] } },
{ "type": "Feature", "properties": { "id": "940GZZLUOXC", "name_x": "Oxford Circus", "lines": [ { "name": "Bakerloo", "network": "Tube" }, { "name": "Central", "network": "Tube" }, { "name": "Victoria", "network": "Tube" } ], "Lat": 51.515308, "Long": -0.14208, "Year": 1900.0, "zone": "1" }, "geometry": { "type": "Point", "coordinates": [ -0.142080210790084, 51.515307857031871 ] } },
{ "type": "Feature", "properties": { "id": "940GZZLUPAH", "name_x": "Paddington", "lines": [ { "name": "Hammersmith & City", "network": "Tube" }, { "name": "Circle", "network": "Tube", "opened": 2009 }, { "name": "Crossrail", "network": "Rail", "opened": 2018 }, { "name": "National Rail", "network": "Rail" } ], "Lat": 51.517277, "Long": -0.179204, "Year": 1863.0, "zone": "1" }, "geometry": { "type": "Point", "coordinates": [ -0.179204088806557, 51.517276896769374 ] } },
{ "type": "Feature", "properties": { "id": "940GZZLUPCC", "name_x": "Piccadilly Circus", "lines": [ { "name": "Bakerloo", "network": "Tube" }, { "name": "Piccadilly", "network": "Tube" } ], "Lat": 51.509959, "Long": -0.133442, "Year": 1906.0, "zone": "1" }, "geometry": { "type": "Point", "coordinates": [ -0.133441888792731, 51.509958796763897 ] } },
{ "type": "Feature", "properties": { "id": "940GZZLUPCO", "name_x": "Pimlico", "lines": [ { "name": "Victoria", "network": "Tube" } ], "Lat": 51.488891, "Long": -0.132954, "Year": 1972.0, "zone": "1" }, "geometry": { "type": "Point", "coordinates": [ -0.132954188802387, 51.488890696751071 ] } },
{ "type": "Feature", "properties": { "id": "940GZZLUPKR", "name_x": "Park Royal", "lines": [ { "name": "Piccadilly", "network": "Tube" } ], "Lat": 51.526523, "Long": -0.283955, "Year": 1903.0, "zone": "3" }, "geometry": { "type": "Point", "coordinates": [ -0.283955288841867, 51.526522796777272 ] } },
{ "type": "Feature", "properties": { "id": "940GZZLUPLW", "name_x": "Plaistow", "lines": [ { "name": "District", "network": "Tube" }, { "name": "Hammersmith & City", "network": "Tube" } ], "Lat": 51.531157, "Long": 0.016571, "Year": 1902.0, "zone": "3" }, "geometry": { "type": "Point", "coordinates": [ 0.016571411272594, 51.531157396772983 ] } },
{ "type": "Feature", "properties": { "id": "940GZZLUPNR", "name_x": "Pinner", "lines": [ { "name": "Metropolitan", "network": "Tube" } ], "Lat": 51.592714, "Long": -0.38081, "Year": 1885.0, "zone": "5" }, "geometry": { "type": "Point", "coordinates": [ -0.380809788848808, 51.592713596820033 ] } },
{ "type": "Feature", "properties": { "id": "940GZZLUPRD", "name_x": "Preston Road", "lines": [ { "name": "Metropolitan", "network": "Tube" } ], "Lat": 51.572074, "Long": -0.295144, "Year": 1908.0, "zone": "4" }, "geometry": { "type": "Point", "coordinates": [ -0.295144488825201, 51.572074196805545 ] } },
{ "type": "Feature", "properties": { "id": "940GZZLUPSG", "name_x": "Parsons Green", "lines": [ { "name": "District", "network": "Tube" } ], "Lat": 51.475302, "Long": -0.201087, "Year": 1880.0, "zone": "2" }, "geometry": { "type": "Point", "coordinates": [ -0.201087188834151, 51.475302496744291 ] } },
{ "type": "Feature", "properties": { "id": "940GZZLUPVL", "name_x": "Perivale", "lines": [ { "name": "Central", "network": "Tube" } ], "Lat": 51.53674, "Long": -0.32358, "Year": 1947.0, "zone": "4" }, "geometry": { "type": "Point", "coordinates": [ -0.323579788852385, 51.536739696784366 ] } },
{ "type": "Feature", "properties": { "id": "940GZZLUPYB", "name_x": "Putney Bridge", "lines": [ { "name": "District", "network": "Tube" } ], "Lat": 51.468345, "Long": -0.208817, "Year": 1880.0, "zone": "2" }, "geometry": { "type": "Point", "coordinates": [ -0.208817488840339, 51.468344996740086 ] } },
{ "type": "Feature", "properties": { "id": "940GZZLUQBY", "name_x": "Queensbury", "lines": [ { "name": "Jubilee", "network": "Tube" } ], "Lat": 51.594173, "Long": -0.286185, "Year": 1934.0, "zone": "4" }, "geometry": { "type": "Point", "coordinates": [ -0.286185488811725, 51.59417269681893 ] } },
{ "type": "Feature", "properties": { "id": "940GZZLUQPS", "name_x": "Queen's Park", "lines": [ { "name": "Bakerloo", "network": "Tube" }, { "name": "London Overground", "network": "Rail", "opened": 2007 } ], "Lat": 51.533993, "Long": -0.205506, "Year": 1915.0, "zone": "2" }, "geometry": { "type": "Point", "coordinates": [ -0.205505588808705, 51.533992796780183 ] } },
{ "type": "Feature", "properties": { "id": "940GZZLUQWY", "name_x": "Queensway", "lines": [ { "name": "Central", "network": "Tube" } ], "Lat": 51.5105, "Long": -0.18723, "Year": 1900.0, "zone": "1" }, "geometry": { "type": "Point", "coordinates": [ -0.187229788812658, 51.510500396765394 ] } },
{ "type": "Feature", "properties": { "id": "940GZZLURBG", "name_x": "Redbridge", "lines": [ { "name": "Central", "network": "Tube" } ], "Lat": 51.576363, "Long": 0.045411, "Year": 1947.0, "zone": "4" }, "geometry": { "type": "Point", "coordinates": [ 0.045411011304395, 51.576362796799629 ] } },
{ "type": "Feature", "properties": { "id": "940GZZLURGP", "name_x": "Regent's Park", "lines": [ { "name": "Bakerloo", "network": "Tube" } ], "Lat": 51.523447, "Long": -0.1465, "Year": 1906.0, "zone": "1" }, "geometry": { "type": "Point", "coordinates": [ -0.146499588791414, 51.523447196772395 ] } },
{ "type": "Feature", "properties": { "id": "940GZZLURKW", "name_x": "Rickmansworth", "lines": [ { "name": "Metropolitan", "network": "Tube" } ], "Lat": 51.640181, "Long": -0.473582, "Year": 1887.0, "zone": "7" }, "geometry": { "type": "Point", "coordinates": [ -0.473582488863599, 51.640181496851312 ] } },
{ "type": "Feature", "properties": { "id": "940GZZLURMD", "name_x": "Richmond", "lines": [ { "name": "District", "network": "Tube" }, { "name": "London Overground", "network": "Rail", "opened": 2007 } ], "Lat": 51.463331, "Long": -0.301184, "Year": 1877.0, "zone": "4" }, "geometry": { "type": "Point", "coordinates": [ -0.301184388877573, 51.463331296738772 ] } },
{ "type": "Feature", "properties": { "id": "940GZZLURSG", "name_x": "Ruislip Gardens", "lines": [ { "name": "Central", "network": "Tube" } ], "Lat": 51.560741, "Long": -0.410595, "Year": 1948.0, "zone": "5" }, "geometry": { "type": "Point", "coordinates": [ -0.410594588874972, 51.56074089680078 ] } },
{ "type": "Feature", "properties": { "id": "940GZZLURSM", "name_x": "Ruislip Manor", "lines": [ { "name": "Metropolitan", "network": "Tube" }, { "name": "Piccadilly", "network": "Tube" } ], "Lat": 51.573307, "Long": -0.412388, "Year": 1912.0, "zone": "6" }, "geometry": { "type": "Point", "coordinates": [ -0.412388088869989, 51.573307396808673 ] } },
{ "type": "Feature", "properties": { "id": "940GZZLURSP", "name_x": "Ruislip", "lines": [ { "name": "Metropolitan", "network": "Tube" }, { "name": "Piccadilly", "network": "Tube" } ], "Lat": 51.571373, "Long": -0.421628, "Year": 1904.0, "zone": "6" }, "geometry": { "type": "Point", "coordinates": [ -0.421628045003445, 51.571372747608507 ] } },
{ "type": "Feature", "properties": { "id": "940GZZLURSQ", "name_x": "Russell Square", "lines": [ { "name": "Piccadilly", "network": "Tube" } ], "Lat": 51.523145, "Long": -0.124203, "Year": 1906.0, "zone": "1" }, "geometry": { "type": "Point", "coordinates": [ -0.124203388783201, 51.523145296771759 ] } },
{ "type": "Feature", "properties": { "id": "940GZZLURVP", "name_x": "Ravenscourt Park", "lines": [ { "name": "District", "network": "Tube" } ], "Lat": 51.494117, "Long": -0.235797, "Year": 1877.0, "zone": "2" }, "geometry": { "type": "Point", "coordinates": [ -0.235797488838614, 51.494116696756407 ] } },
{ "type": "Feature", "properties": { "id": "940GZZLURVY", "name_x": "Roding Valley", "lines": [ { "name": "Central", "network": "Tube" } ], "Lat": 51.617106, "Long": 0.04388, "Year": 1948.0, "zone": "4" }, "geometry": { "type": "Point", "coordinates": [ 0.043879811322824, 51.61710569682441 ] } },
{ "type": "Feature", "properties": { "id": "940GZZLURYL", "name_x": "Rayners Lane", "lines": [ { "name": "Metropolitan", "network": "Tube" }, { "name": "Piccadilly", "network": "Tube" } ], "Lat": 51.575188, "Long": -0.371281, "Year": 1906.0, "zone": "5" }, "geometry": { "type": "Point", "coordinates": [ -0.371281388853106, 51.575188196808995 ] } },
{ "type": "Feature", "properties": { "id": "940GZZLURYO", "name_x": "Royal Oak", "lines": [ { "name": "Circle", "network": "Tube", "opened": 2009 }, { "name": "Hammersmith & City", "network": "Tube" } ], "Lat": 51.519063, "Long": -0.187989, "Year": 1871.0, "zone": "2" }, "geometry": { "type": "Point", "coordinates": [ -0.187989018355552, 51.519062750292392 ] } },
{ "type": "Feature", "properties": { "id": "940GZZLUSBC", "name_x": "Shepherd's Bush", "lines": [ { "name": "Central", "network": "Tube" }, { "name": "London Overground", "network": "Rail", "opened": 2007 }, { "name": "National Rail", "network": "Rail" } ], "Lat": 51.504598, "Long": -0.217128, "Year": 1900.0, "zone": "2" }, "geometry": { "type": "Point", "coordinates": [ -0.217128244328819, 51.504597554823022 ] } },
{ "type": "Feature", "properties": { "id": "940GZZLUSBM", "name_x": "Shepherd's Bush Market", "lines": [ { "name": "Circle", "network": "Tube", "opened": 2009 }, { "name": "Hammersmith & City", "network": "Tube" } ], "Lat": 51.505796, "Long": -0.226383, "Year": 1864.0, "zone": "2" }, "geometry": { "type": "Point", "coordinates": [ -0.22638308882955, 51.505796496763423 ] } },
{ "type": "Feature", "properties": { "id": "940GZZLUSEA", "name_x": "South Ealing", "lines": [ { "name": "Piccadilly", "network": "Tube" } ], "Lat": 51.501029, "Long": -0.307101, "Year": 1883.0, "zone": "3" }, "geometry": { "type": "Point", "coordinates": [ -0.307100976576123, 51.501029132182964 ] } },
{ "type": "Feature", "properties": { "id": "940GZZLUSFB", "name_x": "Stamford Brook", "lines": [ { "name": "District", "network": "Tube" } ], "Lat": 51.494938, "Long": -0.245835, "Year": 1912.0, "zone": "2" }, "geometry": { "type": "Point", "coordinates": [ -0.245834688842024, 51.494938196757062 ] } },
{ "type": "Feature", "properties": { "id": "940GZZLUSFS", "name_x": "Southfields", "lines": [ { "name": "District", "network": "Tube" } ], "Lat": 51.445525, "Long": -0.206706, "Year": 1889.0, "zone": "3" }, "geometry": { "type": "Point", "coordinates": [ -0.206705607801041, 51.445525288961733 ] } },
{ "type": "Feature", "properties": { "id": "940GZZLUSGN", "name_x": "Stepney Green", "lines": [ { "name": "District", "network": "Tube" }, { "name": "Hammersmith & City", "network": "Tube" } ], "Lat": 51.521715, "Long": -0.046728, "Year": 1902.0, "zone": "2" }, "geometry": { "type": "Point", "coordinates": [ -0.046728188755139, 51.521714596769016 ] } },
{ "type": "Feature", "properties": { "id": "940GZZLUSGP", "name_x": "Stonebridge Park", "lines": [ { "name": "Bakerloo", "network": "Tube" }, { "name": "London Overground", "network": "Rail", "opened": 2007 } ], "Lat": 51.543881, "Long": -0.2757, "Year": 1917.0, "zone": "3" }, "geometry": { "type": "Point", "coordinates": [ -0.275700388830785, 51.543881196787822 ] } },
{ "type": "Feature", "properties": { "id": "940GZZLUSGT", "name_x": "Southgate", "lines": [ { "name": "Piccadilly", "network": "Tube" } ], "Lat": 51.632334, "Long": -0.127811, "Year": 1933.0, "zone": "4" }, "geometry": { "type": "Point", "coordinates": [ -0.127810688733916, 51.632333596838805 ] } },
{ "type": "Feature", "properties": { "id": "940GZZLUSHH", "name_x": "South Harrow", "lines": [ { "name": "Piccadilly", "network": "Tube" } ], "Lat": 51.564662, "Long": -0.35221, "Year": 1903.0, "zone": "5" }, "geometry": { "type": "Point", "coordinates": [ -0.352209788850587, 51.564662096802124 ] } },
{ "type": "Feature", "properties": { "id": "940GZZLUSJP", "name_x": "St. James's Park", "lines": [ { "name": "District", "network": "Tube" }, { "name": "Circle", "network": "Tube" } ], "Lat": 51.499612, "Long": -0.133536, "Year": 1868.0, "zone": "1" }, "geometry": { "type": "Point", "coordinates": [ -0.133535688797622, 51.499611996757608 ] } },
{ "type": "Feature", "properties": { "id": "940GZZLUSJW", "name_x": "St. John's Wood", "lines": [ { "name": "Jubilee", "network": "Tube" } ], "Lat": 51.534831, "Long": -0.174052, "Year": 1939.0, "zone": "2" }, "geometry": { "type": "Point", "coordinates": [ -0.174052188796509, 51.534830996780101 ] } },
{ "type": "Feature", "properties": { "id": "940GZZLUSKS", "name_x": "South Kensington", "lines": [ { "name": "District", "network": "Tube" }, { "name": "Circle", "network": "Tube" }, { "name": "Piccadilly", "network": "Tube" } ], "Lat": 51.494037, "Long": -0.1729, "Year": 1868.0, "zone": "1" }, "geometry": { "type": "Point", "coordinates": [ -0.172900093155022, 51.494037101038487 ] } },
{ "type": "Feature", "properties": { "id": "940GZZLUSKT", "name_x": "South Kenton", "lines": [ { "name": "Bakerloo", "network": "Tube" }, { "name": "London Overground", "network": "Rail", "opened": 2007 } ], "Lat": 51.570254, "Long": -0.3084, "Year": 1933.0, "zone": "4" }, "geometry": { "type": "Point", "coordinates": [ -0.308399788831196, 51.570254096804717 ] } },
{ "type": "Feature", "properties": { "id": "940GZZLUSKW", "name_x": "Stockwell", "lines": [ { "name": "Northern", "network": "Tube" }, { "name": "Victoria", "network": "Tube" } ], "Lat": 51.47218, "Long": -0.122502, "Year": 1890.0, "zone": "2" }, "geometry": { "type": "Point", "coordinates": [ -0.122501888806255, 51.47217989674067 ] } },
{ "type": "Feature", "properties": { "id": "940GZZLUSNB", "name_x": "Snaresbrook", "lines": [ { "name": "Central", "network": "Tube" } ], "Lat": 51.58073, "Long": 0.021514, "Year": 1947.0, "zone": "4" }, "geometry": { "type": "Point", "coordinates": [ 0.021513611297621, 51.580729996803029 ] } },
{ "type": "Feature", "properties": { "id": "940GZZLUSPU", "name_x": "St. Paul's", "lines": [ { "name": "Central", "network": "Tube" } ], "Lat": 51.514925, "Long": -0.097482, "Year": 1900.0, "zone": "1" }, "geometry": { "type": "Point", "coordinates": [ -0.097481965278064, 51.514924829001075 ] } },
{ "type": "Feature", "properties": { "id": "940GZZLUSRP", "name_x": "South Ruislip", "lines": [ { "name": "Central", "network": "Tube" }, { "name": "National Rail", "network": "Rail" } ], "Lat": 51.557035, "Long": -0.399288, "Year": 1948.0, "zone": "5" }, "geometry": { "type": "Point", "coordinates": [ -0.399288388872264, 51.557034696798269 ] } },
{ "type": "Feature", "properties": { "id": "940GZZLUSSQ", "name_x": "Sloane Square", "lines": [ { "name": "District", "network": "Tube" }, { "name": "Circle", "network": "Tube" } ], "Lat": 51.492348, "Long": -0.156526, "Year": 1868.0, "zone": "1" }, "geometry": { "type": "Point", "coordinates": [ -0.156526188809494, 51.492348396753641 ] } },
{ "type": "Feature", "properties": { "id": "940GZZLUSTD", "name_x": "Stratford", "lines": "[ { \"name\": \"Central\", \"network\": \"Tube\" }, { \"name\": \"Jubilee\", \"network\": \"Tube\" }, { \"name\": \"DLR\", \"network\": \"DLR\" }, { \"name\": \"London Overground\", \"network\": \"Rail\", \"opened\": 2007 }, { \"name\": \"TfL Rail\", \"network\": \"Rail\", \"opened\": 2015, \"close", "Lat": 51.541494, "Long": -0.003884, "Year": 1946.0, "zone": "2\/3" }, "geometry": { "type": "Point", "coordinates": [ -0.003884484371156, 51.54149403786306 ] } },
{ "type": "Feature", "properties": { "id": "940GZZLUSTM", "name_x": "Stanmore", "lines": [ { "name": "Jubilee", "network": "Tube" } ], "Lat": 51.619393, "Long": -0.303016, "Year": 1932.0, "zone": "5" }, "geometry": { "type": "Point", "coordinates": [ -0.303016388806611, 51.619392996834961 ] } },
{ "type": "Feature", "properties": { "id": "940GZZLUSUH", "name_x": "Sudbury Hill", "lines": [ { "name": "Piccadilly", "network": "Tube" } ], "Lat": 51.556988, "Long": -0.336682, "Year": 1903.0, "zone": "4" }, "geometry": { "type": "Point", "coordinates": [ -0.336681952450078, 51.556988165497103 ] } },
{ "type": "Feature", "properties": { "id": "940GZZLUSUT", "name_x": "Sudbury Town", "lines": [ { "name": "Piccadilly", "network": "Tube" } ], "Lat": 51.550848, "Long": -0.315803, "Year": 1903.0, "zone": "4" }, "geometry": { "type": "Point", "coordinates": [ -0.315803488842846, 51.550847896792789 ] } },
{ "type": "Feature", "properties": { "id": "940GZZLUSVS", "name_x": "Seven Sisters", "lines": [ { "name": "London Overground", "network": "Rail", "opened": 2015 }, { "name": "Victoria", "network": "Tube" } ], "Lat": 51.582448, "Long": -0.075114, "Year": 1969.0, "zone": "3" }, "geometry": { "type": "Point", "coordinates": [ -0.075113888737235, 51.582447796806775 ] } },
{ "type": "Feature", "properties": { "id": "940GZZLUSWC", "name_x": "Swiss Cottage", "lines": [ { "name": "Jubilee", "network": "Tube" } ], "Lat": 51.543336, "Long": -0.174663, "Year": 1939.0, "zone": "2" }, "geometry": { "type": "Point", "coordinates": [ -0.174663288792772, 51.543335996785174 ] } },
{ "type": "Feature", "properties": { "id": "940GZZLUSWF", "name_x": "South Woodford", "lines": [ { "name": "Central", "network": "Tube" } ], "Lat": 51.591932, "Long": 0.027391, "Year": 1947.0, "zone": "4" }, "geometry": { "type": "Point", "coordinates": [ 0.027390811304997, 51.591931596809502 ] } },
{ "type": "Feature", "properties": { "id": "940GZZLUSWK", "name_x": "Southwark", "lines": [ { "name": "Jubilee", "network": "Tube" } ], "Lat": 51.50408, "Long": -0.105149, "Year": 1999.0, "zone": "1" }, "geometry": { "type": "Point", "coordinates": [ -0.105149088784913, 51.504080096759594 ] } },
{ "type": "Feature", "properties": { "id": "940GZZLUSWN", "name_x": "South Wimbledon", "lines": [ { "name": "Northern", "network": "Tube" } ], "Lat": 51.415329, "Long": -0.192138, "Year": 1926.0, "zone": "3\/4" }, "geometry": { "type": "Point", "coordinates": [ -0.192138088858712, 51.415328596707525 ] } },
{ "type": "Feature", "properties": { "id": "940GZZLUTAW", "name_x": "Totteridge & Whetstone", "lines": [ { "name": "Northern", "network": "Tube" } ], "Lat": 51.630365, "Long": -0.179153, "Year": 1940.0, "zone": "4" }, "geometry": { "type": "Point", "coordinates": [ -0.179152788754266, 51.63036539683884 ] } },
{ "type": "Feature", "properties": { "id": "940GZZLUTBC", "name_x": "Tooting Bec", "lines": [ { "name": "Northern", "network": "Tube" } ], "Lat": 51.435598, "Long": -0.15965, "Year": 1926.0, "zone": "3" }, "geometry": { "type": "Point", "coordinates": [ -0.159650488837144, 51.435598296719093 ] } },
{ "type": "Feature", "properties": { "id": "940GZZLUTBY", "name_x": "Tooting Broadway", "lines": [ { "name": "Northern", "network": "Tube" } ], "Lat": 51.427745, "Long": -0.168185, "Year": 1926.0, "zone": "3" }, "geometry": { "type": "Point", "coordinates": [ -0.168185288843972, 51.427745396714556 ] } },
{ "type": "Feature", "properties": { "id": "940GZZLUTCR", "name_x": "Tottenham Court Road", "lines": [ { "name": "Central", "network": "Tube" }, { "name": "Northern", "network": "Tube" }, { "name": "Crossrail", "network": "Rail", "opened": 2018 } ], "Lat": 51.516467, "Long": -0.130524, "Year": 1900.0, "zone": "1" }, "geometry": { "type": "Point", "coordinates": [ -0.130523703657047, 51.516467467189614 ] } },
{ "type": "Feature", "properties": { "id": "940GZZLUTFP", "name_x": "Tufnell Park", "lines": [ { "name": "Northern", "network": "Tube" } ], "Lat": 51.556808, "Long": -0.138433, "Year": 1907.0, "zone": "2" }, "geometry": { "type": "Point", "coordinates": [ -0.138432888772854, 51.556807996792656 ] } },
{ "type": "Feature", "properties": { "id": "940GZZLUTHB", "name_x": "Theydon Bois", "lines": [ { "name": "Central", "network": "Tube" } ], "Lat": 51.671738, "Long": 0.10321, "Year": 1949.0, "zone": "6" }, "geometry": { "type": "Point", "coordinates": [ 0.103210311370162, 51.671738096855847 ] } },
{ "type": "Feature", "properties": { "id": "940GZZLUTMH", "name_x": "Tottenham Hale", "lines": [ { "name": "Victoria", "network": "Tube" } ], "Lat": 51.58838, "Long": -0.060088, "Year": 1968.0, "zone": "3" }, "geometry": { "type": "Point", "coordinates": [ -0.060088088729003, 51.588379896810011 ] } },
{ "type": "Feature", "properties": { "id": "940GZZLUTMP", "name_x": "Temple", "lines": [ { "name": "District", "network": "Tube" }, { "name": "Circle", "network": "Tube" } ], "Lat": 51.511062, "Long": -0.11375, "Year": 1870.0, "zone": "1" }, "geometry": { "type": "Point", "coordinates": [ -0.113749988784946, 51.511061796764011 ] } },
{ "type": "Feature", "properties": { "id": "940GZZLUTNG", "name_x": "Turnham Green", "lines": [ { "name": "District", "network": "Tube" }, { "name": "Piccadilly", "network": "Tube" } ], "Lat": 51.495143, "Long": -0.25453, "Year": 1877.0, "zone": "2\/3" }, "geometry": { "type": "Point", "coordinates": [ -0.254530088845172, 51.49514349675735 ] } },
{ "type": "Feature", "properties": { "id": "940GZZLUTPN", "name_x": "Turnpike Lane", "lines": [ { "name": "Piccadilly", "network": "Tube" } ], "Lat": 51.590348, "Long": -0.102846, "Year": 1932.0, "zone": "3" }, "geometry": { "type": "Point", "coordinates": [ -0.102846488743978, 51.590348196812272 ] } },
{ "type": "Feature", "properties": { "id": "940GZZLUTWH", "name_x": "Tower Hill", "lines": [ { "name": "District", "network": "Tube" }, { "name": "Circle", "network": "Tube" } ], "Lat": 51.50981, "Long": -0.07775, "Year": 1882.0, "zone": "1" }, "geometry": { "type": "Point", "coordinates": [ -0.077750188772143, 51.509809996762442 ] } },
{ "type": "Feature", "properties": { "id": "940GZZLUUPB", "name_x": "Upminster Bridge", "lines": [ { "name": "District", "network": "Tube" } ], "Lat": 51.558334, "Long": 0.234694, "Year": 1934.0, "zone": "6" }, "geometry": { "type": "Point", "coordinates": [ 0.234693811364366, 51.5583341967818 ] } },
{ "type": "Feature", "properties": { "id": "940GZZLUUPK", "name_x": "Upton Park", "lines": [ { "name": "District", "network": "Tube" }, { "name": "Hammersmith & City", "network": "Tube" } ], "Lat": 51.535224, "Long": 0.034414, "Year": 1902.0, "zone": "3" }, "geometry": { "type": "Point", "coordinates": [ 0.03441411128108, 51.535224196774777 ] } },
{ "type": "Feature", "properties": { "id": "940GZZLUUPM", "name_x": "Upminster", "lines": [ { "name": "District", "network": "Tube" }, { "name": "London Overground", "network": "Rail", "opened": 2015 } ], "Lat": 51.559013, "Long": 0.253024, "Year": 1902.0, "zone": "6" }, "geometry": { "type": "Point", "coordinates": [ 0.253023811371236, 51.559013296781302 ] } },
{ "type": "Feature", "properties": { "id": "940GZZLUUPY", "name_x": "Upney", "lines": [ { "name": "District", "network": "Tube" } ], "Lat": 51.538267, "Long": 0.099728, "Year": 1932.0, "zone": "4" }, "geometry": { "type": "Point", "coordinates": [ 0.099727711306343, 51.538266596774633 ] } },
{ "type": "Feature", "properties": { "id": "940GZZLUUXB", "name_x": "Uxbridge", "lines": [ { "name": "Metropolitan", "network": "Tube" }, { "name": "Piccadilly", "network": "Tube" } ], "Lat": 51.546434, "Long": -0.478411, "Year": 1904.0, "zone": "6" }, "geometry": { "type": "Point", "coordinates": [ -0.478411288907978, 51.546434196793143 ] } },
{ "type": "Feature", "properties": { "id": "940GZZLUVIC", "name_x": "Victoria", "lines": [ { "name": "District", "network": "Tube" }, { "name": "Circle", "network": "Tube" }, { "name": "Victoria", "network": "Tube" }, { "name": "National Rail", "network": "Rail" } ], "Lat": 51.496358, "Long": -0.143229, "Year": 1868.0, "zone": "1" }, "geometry": { "type": "Point", "coordinates": [ -0.143229488802774, 51.496358496755761 ] } },
{ "type": "Feature", "properties": { "id": "940GZZLUVXL", "name_x": "Vauxhall", "lines": [ { "name": "Victoria", "network": "Tube" }, { "name": "National Rail", "network": "Rail" } ], "Lat": 51.484972, "Long": -0.12308, "Year": 1971.0, "zone": "1\/2" }, "geometry": { "type": "Point", "coordinates": [ -0.123079588800522, 51.484971696748516 ] } },
{ "type": "Feature", "properties": { "id": "940GZZLUWAF", "name_x": "Watford", "lines": [ { "name": "Metropolitan", "network": "Tube", "closed": 2019 } ], "Lat": 51.657372, "Long": -0.417373, "Year": 1925.0, "zone": "7" }, "geometry": { "type": "Point", "coordinates": [ -0.417372688833723, 51.657372196860933 ] } },
{ "type": "Feature", "properties": { "id": "940GZZLUWBN", "name_x": "West Brompton", "lines": [ { "name": "District", "network": "Tube" }, { "name": "London Overground", "network": "Rail", "opened": 2007 }, { "name": "National Rail", "network": "Rail" } ], "Lat": 51.48703, "Long": -0.195488, "Year": 1869.0, "zone": "2" }, "geometry": { "type": "Point", "coordinates": [ -0.195487737439066, 51.487029946507221 ] } },
{ "type": "Feature", "properties": { "id": "940GZZLUWCY", "name_x": "White City", "lines": [ { "name": "Central", "network": "Tube" } ], "Lat": 51.512072, "Long": -0.224386, "Year": 1947.0, "zone": "2" }, "geometry": { "type": "Point", "coordinates": [ -0.224385788825941, 51.512071896767168 ] } },
{ "type": "Feature", "properties": { "id": "940GZZLUWFN", "name_x": "West Finchley", "lines": [ { "name": "Northern", "network": "Tube" } ], "Lat": 51.609488, "Long": -0.188301, "Year": 1940.0, "zone": "4" }, "geometry": { "type": "Point", "coordinates": [ -0.188301288767377, 51.60948839682618 ] } },
{ "type": "Feature", "properties": { "id": "940GZZLUWHM", "name_x": "West Ham", "lines": [ { "name": "District", "network": "Tube" }, { "name": "Hammersmith & City", "network": "Tube" }, { "name": "Jubilee", "network": "Tube" }, { "name": "DLR", "network": "DLR", "opened": 2011 }, { "name": "National Rail", "network": "Rail" } ], "Lat": 51.528336, "Long": 0.004399, "Year": 1902.0, "zone": "2\/3" }, "geometry": { "type": "Point", "coordinates": [ 0.004399088776324, 51.52833584916408 ] } },
{ "type": "Feature", "properties": { "id": "940GZZLUWHP", "name_x": "West Hampstead", "lines": [ { "name": "Jubilee", "network": "Tube" }, { "name": "London Overground", "network": "Rail", "opened": 2007 } ], "Lat": 51.546857, "Long": -0.1908, "Year": 1879.0, "zone": "2" }, "geometry": { "type": "Point", "coordinates": [ -0.19079998879721, 51.546856596787791 ] } },
{ "type": "Feature", "properties": { "id": "940GZZLUWHW", "name_x": "West Harrow", "lines": [ { "name": "Metropolitan", "network": "Tube" } ], "Lat": 51.579391, "Long": -0.353765, "Year": 1913.0, "zone": "5" }, "geometry": { "type": "Point", "coordinates": [ -0.353765188844477, 51.579390796811253 ] } },
{ "type": "Feature", "properties": { "id": "940GZZLUWIG", "name_x": "Willesden Green", "lines": [ { "name": "Jubilee", "network": "Tube" } ], "Lat": 51.549329, "Long": -0.221855, "Year": 1879.0, "zone": "2\/3" }, "geometry": { "type": "Point", "coordinates": [ -0.221854888807854, 51.549329396789915 ] } },
{ "type": "Feature", "properties": { "id": "940GZZLUWIM", "name_x": "Wimbledon", "lines": [ { "name": "District", "network": "Tube" }, { "name": "Tramlink", "network": "Tramlink" }, { "name": "National Rail", "network": "Rail" } ], "Lat": 51.421636, "Long": -0.206164, "Year": 1889.0, "zone": "3\/T" }, "geometry": { "type": "Point", "coordinates": [ -0.206164202902528, 51.421635883105751 ] } },
{ "type": "Feature", "properties": { "id": "940GZZLUWIP", "name_x": "Wimbledon Park", "lines": [ { "name": "District", "network": "Tube" } ], "Lat": 51.434459, "Long": -0.199632, "Year": 1889.0, "zone": "3" }, "geometry": { "type": "Point", "coordinates": [ -0.199631988852502, 51.43445889671932 ] } },
{ "type": "Feature", "properties": { "id": "940GZZLUWJN", "name_x": "Willesden Junction", "lines": [ { "name": "Bakerloo", "network": "Tube" }, { "name": "London Overground", "network": "Rail", "opened": 2007 } ], "Lat": 51.532249, "Long": -0.24318, "Year": 1915.0, "zone": "2\/3" }, "geometry": { "type": "Point", "coordinates": [ -0.243179588823807, 51.532248696779959 ] } },
{ "type": "Feature", "properties": { "id": "940GZZLUWKA", "name_x": "Warwick Avenue", "lines": [ { "name": "Bakerloo", "network": "Tube" } ], "Lat": 51.5233, "Long": -0.18401, "Year": 1915.0, "zone": "2" }, "geometry": { "type": "Point", "coordinates": [ -0.184009788805497, 51.523300396773209 ] } },
{ "type": "Feature", "properties": { "id": "940GZZLUWKN", "name_x": "West Kensington", "lines": [ { "name": "District", "network": "Tube" } ], "Lat": 51.490697, "Long": -0.20598, "Year": 1874.0, "zone": "2" }, "geometry": { "type": "Point", "coordinates": [ -0.205979842198929, 51.490696661784568 ] } },
{ "type": "Feature", "properties": { "id": "940GZZLUWLA", "name_x": "Wood Lane", "lines": [ { "name": "Circle", "network": "Tube", "opened": 2009 }, { "name": "Hammersmith & City", "network": "Tube", "opened": 2008 } ], "Lat": 51.510074, "Long": -0.223712, "Year": 2008.0, "zone": "2" }, "geometry": { "type": "Point", "coordinates": [ -0.223711688826654, 51.510073896765959 ] } },
{ "type": "Feature", "properties": { "id": "940GZZLUWLO", "name_x": "Waterloo", "lines": [ { "name": "Bakerloo", "network": "Tube" }, { "name": "Jubilee", "network": "Tube" }, { "name": "Northern", "network": "Tube" }, { "name": "Waterloo & City", "network": "Tube" }, { "name": "National Rail", "network": "Rail" } ], "Lat": 51.503057, "Long": -0.114357, "Year": 1906.0, "zone": "1" }, "geometry": { "type": "Point", "coordinates": [ -0.114356675883585, 51.503057090918674 ] } },
{ "type": "Feature", "properties": { "id": "940GZZLUWOF", "name_x": "Woodford", "lines": [ { "name": "Central", "network": "Tube" } ], "Lat": 51.606655, "Long": 0.03386, "Year": 1947.0, "zone": "4" }, "geometry": { "type": "Point", "coordinates": [ 0.03385951131429, 51.606654796818361 ] } },
{ "type": "Feature", "properties": { "id": "940GZZLUWOG", "name_x": "Wood Green", "lines": [ { "name": "Piccadilly", "network": "Tube" } ], "Lat": 51.597419, "Long": -0.109755, "Year": 1932.0, "zone": "3" }, "geometry": { "type": "Point", "coordinates": [ -0.109755288743372, 51.597418896816805 ] } },
{ "type": "Feature", "properties": { "id": "940GZZLUWOP", "name_x": "Woodside Park", "lines": [ { "name": "Northern", "network": "Tube" } ], "Lat": 51.617793, "Long": -0.18562, "Year": 1940.0, "zone": "4" }, "geometry": { "type": "Point", "coordinates": [ -0.185619988762483, 51.617793296831223 ] } },
{ "type": "Feature", "properties": { "id": "940GZZLUWPL", "name_x": "Whitechapel", "lines": "[ { \"name\": \"District\", \"network\": \"Tube\" }, { \"name\": \"Hammersmith & City\", \"network\": \"Tube\" }, { \"name\": \"London Overground\", \"network\": \"Rail\", \"opened\": 2010 }, { \"name\": \"Crossrail\", \"network\": \"Rail\", \"opened\": 2018 }, { \"name\": \"East London\", \"ne", "Lat": 51.519776, "Long": -0.060154, "Year": 1884.0, "zone": "2" }, "geometry": { "type": "Point", "coordinates": [ -0.060154340192241, 51.519775783337252 ] } },
{ "type": "Feature", "properties": { "id": "940GZZLUWRP", "name_x": "West Ruislip", "lines": [ { "name": "Central", "network": "Tube" }, { "name": "National Rail", "network": "Rail" } ], "Lat": 51.569632, "Long": -0.437662, "Year": 1948.0, "zone": "6" }, "geometry": { "type": "Point", "coordinates": [ -0.437661788881485, 51.569631896806698 ] } },
{ "type": "Feature", "properties": { "id": "940GZZLUWRR", "name_x": "Warren Street", "lines": [ { "name": "Northern", "network": "Tube" }, { "name": "Victoria", "network": "Tube" } ], "Lat": 51.524653, "Long": -0.1381, "Year": 1907.0, "zone": "1" }, "geometry": { "type": "Point", "coordinates": [ -0.13809950995028, 51.524653488852664 ] } },
{ "type": "Feature", "properties": { "id": "940GZZLUWSD", "name_x": "Wanstead", "lines": [ { "name": "Central", "network": "Tube" } ], "Lat": 51.575666, "Long": 0.028621, "Year": 1947.0, "zone": "4" }, "geometry": { "type": "Point", "coordinates": [ 0.028621011297901, 51.575665896799705 ] } },
{ "type": "Feature", "properties": { "id": "940GZZLUWSM", "name_x": "Westminster", "lines": [ { "name": "District", "network": "Tube" }, { "name": "Circle", "network": "Tube" }, { "name": "Jubilee", "network": "Tube" } ], "Lat": 51.500878, "Long": -0.125956, "Year": 1868.0, "zone": "1" }, "geometry": { "type": "Point", "coordinates": [ -0.125956372719941, 51.500877525248882 ] } },
{ "type": "Feature", "properties": { "id": "940GZZLUWSP", "name_x": "Westbourne Park", "lines": [ { "name": "Circle", "network": "Tube", "opened": 2009 }, { "name": "Hammersmith & City", "network": "Tube" } ], "Lat": 51.520949, "Long": -0.201508, "Year": 1866.0, "zone": "2" }, "geometry": { "type": "Point", "coordinates": [ -0.201508488813261, 51.520948696772052 ] } },
{ "type": "Feature", "properties": { "id": "940GZZLUWTA", "name_x": "West Acton", "lines": [ { "name": "Central", "network": "Tube" } ], "Lat": 51.518196, "Long": -0.280605, "Year": 1923.0, "zone": "3" }, "geometry": { "type": "Point", "coordinates": [ -0.280605088844368, 51.518196396772055 ] } },
{ "type": "Feature", "properties": { "id": "940GZZLUWWL", "name_x": "Walthamstow Central", "lines": [ { "name": "London Overground", "network": "Rail", "opened": 2015 }, { "name": "Victoria", "network": "Tube" } ], "Lat": 51.58293, "Long": -0.02001, "Year": 1968.0, "zone": "3" }, "geometry": { "type": "Point", "coordinates": [ -0.020010059897515, 51.58293033276783 ] } },
{ "type": "Feature", "properties": { "id": "940GZZLUWYC", "name_x": "Wembley Central", "lines": [ { "name": "Bakerloo", "network": "Tube" }, { "name": "London Overground", "network": "Rail", "opened": 2007 }, { "name": "National Rail", "network": "Rail" } ], "Lat": 51.551395, "Long": -0.295883, "Year": 1917.0, "zone": "4" }, "geometry": { "type": "Point", "coordinates": [ -0.29588258883507, 51.55139509679276 ] } },
{ "type": "Feature", "properties": { "id": "940GZZLUWYP", "name_x": "Wembley Park", "lines": [ { "name": "Jubilee", "network": "Tube" }, { "name": "Metropolitan", "network": "Tube" } ], "Lat": 51.563768, "Long": -0.28004, "Year": 1894.0, "zone": "4" }, "geometry": { "type": "Point", "coordinates": [ -0.280039988823262, 51.563768296800106 ] } },
{ "type": "Feature", "properties": { "id": "940GZZLUHSD", "name_x": "Hammersmith", "lines": [ { "name": "District", "network": "Tube" }, { "name": "Piccadilly", "network": "Tube" } ], "Lat": 51.492122, "Long": -0.223331, "Year": 1874.0, "zone": "2" }, "geometry": { "type": "Point", "coordinates": [ -0.223330888834823, 51.49212249675503 ] } },
{ "type": "Feature", "properties": { "id": "940GZZLUBNK", "name_x": "Bank", "lines": [ { "name": "Central", "network": "Tube" }, { "name": "Northern", "network": "Tube" }, { "name": "DLR", "network": "DLR" }, { "name": "Waterloo & City", "network": "Tube" } ], "Lat": 51.51345, "Long": -0.08899, "Year": 1898.0, "zone": "1" }, "geometry": { "type": "Point", "coordinates": [ -0.088989625035481, 51.513449583578733 ] } },
{ "type": "Feature", "properties": { "id": "940GZZLUHSC", "name_x": "Hammersmith (H&C)", "lines": [ { "name": "Circle", "network": "Tube", "opened": 2009 }, { "name": "Hammersmith & City", "network": "Tube" } ], "Lat": 51.494096, "Long": -0.225083, "Year": 1864.0, "zone": "2" }, "geometry": { "type": "Point", "coordinates": [ -0.225082866974105, 51.494096302855667 ] } }
]
}
